     2              OBSERVATION DATA    GPS                 RINEX VERSION / TYPE
HDS2003                                                     PGM / RUN BY / DATE 
                                                            COMMENT             
92                                                          MARKER NAME
                                                            MARKER NUMBER       
                                                            OBSERVER / AGENCY   
              CSI                                           REC # / TYPE / VERS 
                                                            ANT # / TYPE        
 -2615204.8194  4732903.7150  3371166.5101                  APPROX POSITION XYZ 
        0.0400        0.0000        0.0000                  ANTENNA: DELTA H/E/N
     1     0                                                WAVELENGTH FACT L1/2
     2    C1    L1                                          # / TYPES OF OBSERV 
  2017     7     1     9    16   14.000000      GPS         TIME OF FIRST OBS   
  2017     7     1     9    44   24.000000      GPS         TIME OF LAST OBS    
                                                            END OF HEADER       
 17  7  1  9 16 15.0000000  0  9G23G02G28G03G06G17G12G09G19
  23795862.145    -4885543.799  
  23443754.136   -17514590.087  
  23227053.583    -9126094.943  
  24037150.899    -2359137.831  
  20792801.996   -63212299.886  
  20813227.510    -9953486.577  
  23309573.693    -8306476.884  
  22898511.811   -17736611.759  
  20443960.489    -4877062.818  
 17  7  1  9 16 20.0000000  0  9G23G02G28G03G06G17G12G09G19
  23795461.628    -4887654.286  
  23442084.393   -17523366.689  
  23230322.944    -9108926.043  
  24040335.978    -2342391.569  
  20792572.044   -63213505.914  
  20813717.596    -9950908.936  
  23307398.263    -8317908.830  
  22896639.164   -17746449.156  
  20443671.440    -4878588.645  
 17  7  1  9 16 25.0000000  0  9G23G02G28G03G06G17G12G09G19
  23795061.879    -4889746.937  
  23440415.562   -17532135.597  
  23233592.072    -9091747.797  
  24043523.544    -2325635.818  
  20792345.007   -63214701.207  
  20814211.456    -9948314.935  
  23305227.894    -8329322.178  
  22894768.716   -17756271.913  
  20443382.587    -4880098.291  
 17  7  1  9 16 30.0000000  0  9G23G02G28G03G06G17G12G09G19
  23794666.535    -4891824.111  
  23438747.272   -17540899.017  
  23236861.026    -9074562.415  
  24046714.513    -2308872.746  
  20792118.798   -63215888.015  
  20814707.575    -9945706.838  
  23303058.211    -8340719.277  
  22892902.387   -17766082.245  
  20443098.426    -4881594.067  
 17  7  1  9 16 35.0000000  0  9G23G02G28G03G06G17G12G09G19
  23794272.287    -4893888.985  
  23437079.935   -17549660.230  
  23240133.508    -9057373.251  
  24049906.005    -2292105.702  
  20791893.398   -63217069.604  
  20815206.507    -9943087.876  
  23300890.625    -8352103.350  
  22891038.013   -17775883.363  
  20442815.933    -4883079.223  
 17  7  1  9 16 40.0000000  0  9G23G02G28G03G06G17G12G09G19
  23793882.686    -4895943.041  
  23435413.526   -17558420.587  
  23243403.054    -9040181.650  
  24053097.137    -2275336.006  
  20791669.928   -63218247.372  
  20815706.652    -9940459.493  
  23298728.401    -8363475.753  
  22889174.423   -17785676.716  
  20442534.224    -4884555.103  
 17  7  1  9 16 45.0000000  0  9G23G02G28G03G06G17G12G09G19
  23793491.932    -4897985.806  
  23433746.964   -17567179.752  
  23246675.739    -9022987.251  
  24056289.404    -2258563.380  
  20791446.734   -63219421.007  
  20816208.219    -9937821.276  
  23296566.312    -8374836.072  
  22887310.108   -17795461.881  
  20442256.655    -4886021.338  
 17  7  1  9 16 50.0000000  0  9G23G02G28G03G06G17G12G09G19
  23793107.480    -4900016.098  
  23432081.267   -17575936.652  
  23249947.143    -9005788.949  
  24059481.678    -2241786.646  
  20791224.405   -63220589.252  
  20816712.654    -9935172.061  
  23294407.091    -8386183.247  
  22885453.383   -17805237.721  
  20441980.095    -4887476.795  
 17  7  1  9 16 55.0000000  0  9G23G02G28G03G06G17G12G09G19
  23792722.868    -4902034.289  
  23430413.979   -17584691.501  
  23253223.395    -8988586.974  
  24062671.932    -2225006.153  
  20791002.346   -63221752.531  
  20817218.789    -9932512.209  
  23292251.001    -8397517.399  
  22883592.778   -17815004.457  
  20441703.231    -4888921.752  
 17  7  1  9 17  0.0000000  0  9G23G02G28G03G06G17G12G09G19
  23792340.774    -4904040.436  
  23428746.919   -17593444.355  
  23256496.298    -8971381.527  
  24065871.858    -2208221.874  
  20790782.232   -63222910.811  
  20817726.441    -9929841.718  
  23290096.285    -8408838.795  
  22881737.124   -17824762.224  
  20441430.602    -4890356.173  
 17  7  1  9 17  5.0000000  0  9G23G02G28G03G06G17G12G09G19
  23791960.783    -4906034.523  
  23427084.538   -17602195.203  
  23259772.877    -8954172.544  
  24069064.442    -2191433.930  
  20790562.360   -63224064.122  
  20818236.767    -9927160.586  
  23287943.956    -8420147.201  
  22879882.570   -17834510.936  
  20441160.648    -4891780.205  
 17  7  1  9 17 10.0000000  0  9G23G02G28G03G06G17G12G09G19
  23791584.887    -4908016.623  
  23425417.524   -17610944.361  
  23263045.969    -8936960.295  
  24072260.694    -2174642.469  
  20790344.581   -63225212.546  
  20818749.186    -9924468.934  
  23285792.863    -8431443.189  
  22878028.964   -17844250.791  
  20440892.644    -4893193.851  
 17  7  1  9 17 15.0000000  0  9G23G02G28G03G06G17G12G09G19
  23791210.292    -4909986.540  
  23423754.672   -17619691.371  
  23266323.652    -8919744.322  
  24075455.813    -2157847.070  
  20790126.529   -63226355.919  
  20819263.192    -9921766.503  
  23283646.503    -8442725.671  
  22876176.945   -17853981.394  
  20440623.651    -4894596.904  
 17  7  1  9 17 20.0000000  0  8G23G02G28G06G17G12G09G19
  23790837.909    -4911944.720  
  23422089.454   -17628436.845  
  23269597.966    -8902525.321  
  20789909.686   -63227494.793  
  20819780.411    -9919053.829  
  23281502.785    -8453995.745  
  22874325.563   -17863703.381  
  20440358.443    -4895989.975  
 17  7  1  9 17 25.0000000  0  9G23G02G28G03G06G17G12G09G19
  23790467.427    -4913892.083  
  23420427.710   -17637181.487  
  23272877.044    -8885304.099  
  24081851.374    24678822.645  
  20789693.887   -63228629.808  
  20820297.672    -9916331.663  
  23279358.822    -8465253.862  
  22872478.516   -17873417.442  
  20440095.567    -4897373.648  
 17  7  1  9 17 30.0000000  0  9G23G02G28G03G06G17G12G09G19
  23790100.449    -4915826.618  
  23418762.317   -17645923.441  
  23276155.190    -8868078.783  
  24085046.670    24695628.047  
  20789479.302   -63229759.274  
  20820816.862    -9913598.281  
  23277220.080    -8476498.655  
  22870632.111   -17883121.787  
  20439835.049    -4898746.209  
 17  7  1  9 17 35.0000000  0  8G23G02G28G03G06G17G09G19
  23789732.817    -4917748.249  
  23417097.413   -17654662.831  
  23279434.828    -8850849.166  
  24088245.891    24712437.920  
  20789264.922   -63230882.908  
  20821340.264    -9910853.385  
  22868787.055   -17892816.193  
  20439576.453    -4900107.464  
 17  7  1  9 17 40.0000000  0  8G23G02G28G03G06G17G09G19
  23789370.329    -4919658.294  
  23415431.787   -17663400.465  
  23282711.883    -8833616.644  
  24091444.245    24729250.881  
  20789052.394   -63232002.166  
  20821864.373    -9908098.290  
  22866943.709   -17902502.002  
  20439318.709    -4901458.702  
 17  7  1  9 17 45.0000000  0  8G23G02G28G03G06G17G09G19
  23789007.683    -4921556.307  
  23413769.580   -17672136.585  
  23285992.930    -8816380.809  
  24094646.448    24746067.348  
  20788840.710   -63233116.616  
  20822390.900    -9905332.686  
  22865102.351   -17912178.838  
  20439063.095    -4902799.542  
 17  7  1  9 17 50.0000000  0  9G23G02G28G03G06G17G12G09G19
  23788650.305    -4923439.397  
  23412112.927   -17680867.829  
  23289269.657    -8799138.796  
  24097845.619    24762890.205  
  20788630.001   -63234223.272  
  20822918.975    -9902553.594  
  23268687.172    49566223.635  
  22863262.254   -17921843.691  
  20438811.176    -4904127.032  
 17  7  1  9 17 55.0000000  0  9G23G02G28G03G06G17G12G09G19
  23788293.645    -4925311.988  
  23410451.698   -17689598.741  
  23292553.827    -8781895.042  
  24101047.655    24779715.076  
  20788419.866   -63235326.639  
  20823450.057    -9899765.449  
  23266558.461    49555044.859  
  22861424.878   -17931500.979  
  20438560.260    -4905445.670  
 17  7  1  9 18  0.0000000  0  9G23G02G28G03G06G17G12G09G19
  23787940.629    -4927172.270  
  23408791.395   -17698327.533  
  23295835.204    -8764647.743  
  24104250.331    24796543.653  
  20788210.945   -63236424.845  
  20823983.353    -9896966.410  
  23264433.682    49543879.246  
  22859589.144   -17941148.968  
  20438311.702    -4906753.575  
 17  7  1  9 18  5.0000000  0  9G23G02G28G03G06G17G12G09G19
  23787586.494    -4929020.292  
  23407129.256   -17707054.450  
  23299119.181    -8747396.971  
  24107452.888    24813375.930  
  20788001.905   -63237518.048  
  20824517.961    -9894156.596  
  23262311.503    49532726.727  
  22857754.151   -17950787.696  
  20438063.884    -4908050.902  
 17  7  1  9 18 10.0000000  0  9G23G02G28G03G06G17G12G09G19
  23787238.212    -4930856.200  
  23405468.535   -17715779.393  
  23302401.999    -8730142.873  
  24110656.291    24830211.785  
  20787794.997   -63238606.345  
  20825054.989    -9891336.134  
  23260192.887    49521587.316  
  22855921.719   -17960417.178  
  20437819.487    -4909337.686  
 17  7  1  9 18 15.0000000  0  9G23G02G28G03G06G17G12G09G19
  23786890.324    -4932679.890  
  23403809.210   -17724502.417  
  23305686.357    -8712885.439  
  24113862.664    24847051.127  
  20787589.200   -63239689.695  
  20825592.841    -9888504.917  
  23258075.096    49510460.768  
  22854090.970   -17970037.496  
  20437575.627    -4910613.924  
 17  7  1  9 18 20.0000000  0  9G23G02G28G03G06G17G12G09G19
  23786546.049    -4934491.645  
  23402150.063   -17733223.534  
  23308969.748    -8695624.848  
  24117064.206    24863893.935  
  20787384.440   -63240768.245  
  20826133.875    -9885663.139  
  23255959.056    49499347.206  
  22852264.835   -17979648.695  
  20437335.523    -4911879.735  
 17  7  1  9 18 25.0000000  0  9G23G02G28G03G06G17G12G09G19
  23786204.392    -4936291.137  
  23400490.100   -17741942.692  
  23312256.759    -8678360.923  
  24120270.084    24880740.304  
  20787179.865   -63241841.822  
  20826676.097    -9882810.591  
  23253846.780    49488246.742  
  22850435.595   -17989250.625  
  20437096.749    -4913134.946  
 17  7  1  9 18 30.0000000  0  9G23G02G28G03G06G17G12G09G19
  23785864.010    -4938078.312  
  23398830.410   -17750659.810  
  23315542.612    -8661093.575  
  24123477.523    24897590.258  
  20786977.566   -63242910.405  
  20827221.596    -9879947.277  
  23251735.635    49477159.426  
  22848609.775   -17998843.256  
  20436860.251    -4914379.560  
 17  7  1  9 18 35.0000000  0  9G23G02G28G03G06G17G12G09G19
  23785526.990    -4939853.243  
  23397172.795   -17759374.934  
  23318832.115    -8643822.894  
  24126686.178    24914443.834  
  20786774.051   -63243973.971  
  20827768.885    -9877073.111  
  23249628.139    49466085.229  
  22846786.316   -18008426.520  
  20436624.112    -4915613.528  
 17  7  1  9 18 40.0000000  0  9G23G02G28G03G06G17G12G09G19
  23785191.705    -4941616.120  
  23395513.338   -17768088.169  
  23322117.341    -8626549.034  
  24129895.137    24931300.782  
  20786573.702   -63245032.717  
  20828318.051    -9874188.317  
  23247523.093    49455024.006  
  22844963.877   -18018000.575  
  20436391.424    -4916837.027  
 17  7  1  9 18 45.0000000  0  9G23G02G28G03G06G17G12G09G19
  23784858.124    -4943366.758  
  23393856.157   -17776799.436  
  23325403.271    -8609271.891  
  24133101.937    24948161.244  
  20786372.338   -63246086.480  
  20828867.920    -9871292.724  
  23245423.472    49443975.950  
  22843143.714   -18027565.316  
  20436161.155    -4918049.853  
 17  7  1  9 18 50.0000000  0  9G23G02G28G03G06G17G12G09G19
  23784525.181    -4945105.344  
  23392198.754   -17785508.871  
  23328693.128    -8591991.579  
  24136309.803    24965025.149  
  20786172.327   -63247135.433  
  20829420.572    -9868386.522  
  23243323.200    49432940.809  
  22841326.764   -18037120.822  
  20435932.669    -4919252.187  
 17  7  1  9 18 55.0000000  0  9G23G02G28G03G06G17G12G09G19
  23784197.114    -4946831.701  
  23390543.367   -17794216.502  
  23331979.563    -8574708.148  
  24139520.399    24981892.402  
  20785973.758   -63248179.539  
  20829976.098    -9865469.657  
  23241225.515    49421918.780  
  22839510.685   -18046667.125  
  20435704.480    -4920444.003  
 17  7  1  9 19  0.0000000  0  9G23G02G28G03G06G17G12G09G19
  23783870.497    -4948545.870  
  23388886.710   -17802922.122  
  23335270.739    -8557421.412  
  24142729.297    24998763.150  
  20785776.210   -63249218.690  
  20830534.075    -9862542.022  
  23239130.425    49410909.878  
  22837694.910   -18056204.019  
  20435480.603    -4921625.208  
 17  7  1  9 19  5.0000000  0  9G23G02G28G03G06G17G12G09G19
  23783547.960    -4950247.890  
  23387231.415   -17811625.891  
  23338562.847    -8540131.497  
  24145943.133    25015637.324  
  20785580.023   -63250252.948  
  20831092.984    -9859603.664  
  23237039.987    49399914.121  
  22835881.927   -18065731.630  
  20435258.230    -4922795.840  
 17  7  1  9 19 10.0000000  0  9G23G02G28G03G06G17G12G09G19
  23783227.983    -4951937.942  
  23385574.673   -17820328.067  
  23341854.654    -8522838.702  
  24149155.381    25032514.632  
  20785383.964   -63251282.644  
  20831654.597    -9856654.850  
  23234947.817    49388931.228  
  22834069.502   -18075250.160  
  20435035.699    -4923956.128  
 17  7  1  9 19 15.0000000  0  9G23G02G28G03G06G17G12G09G19
  23782907.957    -4953615.910  
  23383921.174   -17829028.401  
  23345144.694    -8505542.843  
  24152367.293    25049395.211  
  20785188.428   -63252307.541  
  20832217.448    -9853695.443  
  23232860.892    49377961.242  
  22832260.318   -18084759.441  
  20434818.556    -4925105.951  
 17  7  1  9 19 20.0000000  0  9G23G02G28G03G06G17G12G09G19
  23782590.955    -4955281.595  
  23382264.974   -17837726.821  
  23348435.611    -8488243.793  
  24155580.082    25066279.266  
  20784994.341   -63253327.500  
  20832782.178    -9850725.217  
  23230776.132    49367004.524  
  22830453.300   -18094259.358  
  20434600.001    -4926245.138  
 17  7  1  9 19 25.0000000  0  9G23G02G28G03G06G17G12G09G19
  23782277.869    -4956935.133  
  23380609.544   -17846423.397  
  23351728.156    -8470941.611  
  24158792.496    25083166.662  
  20784800.738   -63254342.594  
  20833349.394    -9847744.289  
  23228691.855    49356060.934  
  22828646.335   -18103749.858  
  20434386.651    -4927373.698  
 17  7  1  9 19 30.0000000  0  9G23G02G28G03G06G17G12G09G19
  23781964.665    -4958576.285  
  23378954.137   -17855117.876  
  23355021.298    -8453636.206  
  24162008.368    25100057.551  
  20784609.162   -63255352.698  
  20833918.209    -9844752.486  
  23226613.469    49345130.629  
  22826842.685   -18113230.883  
  20434174.469    -4928491.537  
 17  7  1  9 19 35.0000000  0  9G23G02G28G03G06G17G12G09G19
  23781655.540    -4960205.170  
  23377301.093   -17863810.473  
  23358315.657    -8436327.662  
  24165221.593    25116951.812  
  20784416.800   -63256357.869  
  20834490.101    -9841749.915  
  23224534.726    49334213.460  
  22825039.967   -18122702.421  
  20433964.078    -4929598.745  
 17  7  1  9 19 40.0000000  0  9G23G02G28G03G06G17G12G09G19
  23781347.825    -4961821.759  
  23375646.311   -17872501.070  
  23361608.850    -8419015.968  
  24168437.231    25133849.536  
  20784227.422   -63257358.071  
  20835063.117    -9838736.435  
  23222461.114    49323309.584  
  22823239.517   -18132164.507  
  20433755.812    -4930695.169  
 17  7  1  9 19 45.0000000  0  9G23G02G28G03G06G17G12G09G19
  23781039.966    -4963426.084  
  23373993.531   -17881189.814  
  23364903.473    -8401701.164  
  24171655.729    25150750.569  
  20784037.328   -63258353.415  
  20835638.993    -9835712.244  
  23220389.075    49312418.891  
  22821441.212   -18141617.140  
  20433548.403    -4931780.999  
 17  7  1  9 19 50.0000000  0  9G23G02G28G03G06G17G12G09G19
  23780739.316    -4965018.197  
  23372340.948   -17889876.683  
  23368201.013    -8384383.363  
  24174871.849    25167654.935  
  20783848.719   -63259343.921  
  20836216.499    -9832677.299  
  23218318.377    49301541.403  
  22819643.821   -18151060.364  
  20433344.340    -4932856.200  
 17  7  1  9 19 55.0000000  0  9G23G02G28G03G06G17G12G09G19
  23780437.483    -4966598.153  
  23370687.183   -17898561.753  
  23371495.080    -8367062.519  
  24178087.788    25184562.537  
  20783661.502   -63260329.615  
  20836796.541    -9829631.632  
  23216252.507    49290677.088  
  22817848.537   -18160494.196  
  20433140.382    -4933920.834  
 17  7  1  9 20  0.0000000  0  9G23G02G28G03G06G17G12G09G19
  23780138.548    -4968165.793  
  23369033.740   -17907244.871  
  23374793.189    -8349738.578  
  24181305.909    25201473.491  
  20783475.896   -63261310.394  
  20837378.051    -9826575.156  
  23214188.247    49279825.948  
  22816055.866   -18169918.504  
  20432940.753    -4934974.819  
 17  7  1  9 20  5.0000000  0  9G23G02G28G03G06G17G12G09G19
  23779843.982    -4969721.132  
  23367382.661   -17915926.072  
  23378089.371    -8332411.636  
  24184524.249    25218387.761  
  20783289.507   -63262286.271  
  20837962.068    -9823507.855  
  23212122.775    49268988.158  
  22814263.985   -18179333.281  
  20432742.487    -4936018.033  
 17  7  1  9 20 10.0000000  0  9G23G02G28G03G06G17G12G09G19
  23779548.726    -4971264.228  
  23365731.753   -17924605.434  
  23381387.583    -8315081.630  
  24187745.478    25235305.329  
  20783104.289   -63263257.324  
  20838546.685    -9820429.753  
  23210064.484    49258163.606  
  22812474.278   -18188738.618  
  20432546.395    -4937050.571  
 17  7  1  9 20 15.0000000  0  9G23G02G28G03G06G17G12G09G19
  23779258.853    -4972794.856  
  23364078.643   -17933282.763  
  23384685.454    -8297748.545  
  24190963.073    25252226.265  
  20782920.733   -63264223.344  
  20839134.394    -9817340.788  
  23208006.566    49247352.410  
  22810686.804   -18198134.285  
  20432351.534    -4938072.349  
 17  7  1  9 20 20.0000000  0  9G23G02G28G03G06G17G12G09G19
  23778969.161    -4974313.270  
  23362429.006   -17941958.278  
  23387983.506    -8280412.428  
  24194182.282    25269150.491  
  20782737.358   -63265184.534  
  20839725.147    -9814240.930  
  23205952.695    49236554.433  
  22808900.228   -18207520.403  
  20432158.716    -4939083.428  
 17  7  1  9 20 25.0000000  0  9G23G02G28G03G06G17G12G09G19
  23778682.890    -4975819.173  
  23360777.780   -17950631.685  
  23391283.833    -8263073.140  
  24197403.909    25286078.154  
  20782556.403   -63266140.651  
  20840318.462    -9811130.100  
  23203899.238    49225769.956  
  22807116.643   -18216896.788  
  20431969.031    -4940083.601  
 17  7  1  9 20 30.0000000  0  9G23G02G28G03G06G17G12G09G19
  23778399.063    -4977312.788  
  23359129.143   -17959303.185  
  23394584.317    -8245730.863  
  24200626.693    25303009.095  
  20782374.601   -63267091.873  
  20840911.789    -9808008.405  
  23201850.516    49214998.788  
  22805333.070   -18226263.586  
  20431779.645    -4941073.033  
 17  7  1  9 20 35.0000000  0  9G23G02G28G03G06G17G12G09G19
  23778117.421    -4978794.088  
  23357478.970   -17967972.862  
  23397884.122    -8228385.666  
  24203851.662    25319943.275  
  20782195.270   -63268038.269  
  20841506.728    -9804875.932  
  23199803.119    49204240.899  
  22803553.112   -18235620.863  
  20431593.875    -4942051.749  
 17  7  1  9 20 40.0000000  0  9G23G02G28G03G06G17G12G09G19
  23777837.537    -4980263.289  
  23355827.693   -17976640.823  
  23401186.402    -8211037.656  
  24207073.810    25336880.492  
  20782016.266   -63268979.962  
  20842104.999    -9801732.764  
  23197757.911    49193496.194  
  22801773.482   -18244968.713  
  20431410.435    -4943019.942  
 17  7  1  9 20 45.0000000  0  9G23G02G28G03G06G17G12G09G19
  23777560.583    -4981720.056  
  23354178.917   -17985306.817  
  23404484.313    -8193686.581  
  24210297.456    25353821.003  
  20781837.758   -63269916.740  
  20842704.769    -9798578.727  
  23195716.347    49182764.819  
  22799996.638   -18254306.863  
  20431228.065    -4943977.294  
 17  7  1  9 20 50.0000000  0  9G23G02G28G03G06G17G12G09G19
  23777285.634    -4983164.569  
  23352529.140   -17993970.998  
  23407789.380    -8176332.655  
  24213521.104    25370764.709  
  20781660.255   -63270848.665  
  20843307.975    -9795413.841  
  23193677.789    49172046.817  
  22798223.373   -18263635.450  
  20431047.413    -4944923.905  
 17  7  1  9 20 55.0000000  0  9G23G02G28G03G06G17G12G09G19
  23777012.650    -4984596.684  
  23350883.475   -18002633.222  
  23411093.980    -8158975.751  
  24216747.576    25387711.663  
  20781484.144   -63271775.680  
  20843911.429    -9792238.071  
  23191640.053    49161342.196  
  22796448.783   -18272954.351  
  20430869.299    -4945859.785  
 17  7  1  9 21  0.0000000  0  9G23G02G28G03G06G17G12G09G19
  23776742.195    -4986016.431  
  23349234.473   -18011293.551  
  23414395.529    -8141615.954  
  24219972.857    25404661.834  
  20781310.133   -63272697.830  
  20844517.985    -9789051.473  
  23189606.133    49150650.966  
  22794677.580   -18282263.569  
  20430693.285    -4946784.879  
 17  7  1  9 21  5.0000000  0  9G23G02G28G03G06G17G12G09G19
  23776475.954    -4987423.952  
  23347586.680   -18019952.122  
  23417701.292    -8124253.380  
  24223198.489    25421615.074  
  20781135.185   -63273615.222  
  20845126.322    -9785854.102  
  23187572.421    49139973.007  
  22792906.585   -18291563.239  
  20430519.768    -4947699.304  
 17  7  1  9 21 10.0000000  0  9G23G02G28G03G06G17G12G09G19
  23776208.410    -4988819.056  
  23345939.300   -18028608.744  
  23421006.324    -8106887.851  
  24226423.818    25438571.544  
  20780959.362   -63274527.729  
  20845737.219    -9782645.800  
  23185543.987    49129308.466  
  22791139.007   -18300853.201  
  20430348.095    -4948602.962  
 17  7  1  9 21 15.0000000  0  9G23G02G28G03G06G17G12G09G19
  23775943.920    -4990201.833  
  23344290.253   -18037263.536  
  23424310.260    -8089519.518  
  24229652.345    25455531.133  
  20780787.310   -63275435.379  
  20846350.025    -9779426.670  
  23183517.893    49118657.276  
  22789374.485   -18310133.507  
  20430178.189    -4949495.897  
 17  7  1  9 21 20.0000000  0  9G23G02G28G03G06G17G12G09G19
  23775685.590    -4991572.253  
  23342643.788   -18045916.413  
  23427616.493    -8072148.329  
  24232880.736    25472493.874  
  20780615.837   -63276338.225  
  20846964.413    -9776196.661  
  23181491.805    49108019.469  
  22787608.968   -18319404.166  
  20430009.720    -4950378.093  
 17  7  1  9 21 25.0000000  0  9G23G02G28G03G06G17G12G09G19
  23775426.264    -4992930.246  
  23341001.478   -18054567.382  
  23430921.443    -8054774.245  
  24236110.134    25489459.796  
  20780444.226   -63277236.152  
  20847581.239    -9772955.748  
  23179472.878    49097395.072  
  22785845.173   -18328665.004  
  20429844.262    -4951249.472  
 17  7  1  9 21 30.0000000  0  9G23G02G28G03G06G17G12G09G19
  23775171.862    -4994275.941  
  23339353.361   -18063216.533  
  23434226.596    -8037397.370  
  24239338.160    25506428.776  
  20780274.534   -63278129.288  
  20848201.414    -9769703.942  
  23177452.578    49086784.047  
  22784086.875   -18337916.181  
  20429680.437    -4952110.107  
 17  7  1  9 21 35.0000000  0  9G23G02G28G03G06G17G12G09G19
  23774916.455    -4995609.196  
  23337709.533   -18071863.784  
  23437534.750    -8020017.667  
  24242567.757    25523400.982  
  20780105.984   -63279017.516  
  20848821.873    -9766441.128  
  23175435.280    49076186.508  
  22782328.001   -18347157.570  
  20429518.613    -4952959.844  
 17  7  1  9 21 40.0000000  0  9G23G02G28G03G06G17G12G09G19
  23774664.589    -4996930.083  
  23336063.093   -18080509.173  
  23440841.437    -8002635.143  
  24245800.179    25540376.202  
  20779937.827   -63279900.932  
  20849444.585    -9763167.522  
  23173421.810    49065602.438  
  22780570.236   -18356389.216  
  20429357.753    -4953798.854  
 17  7  1  9 21 45.0000000  0  9G23G02G28G03G06G17G12G09G19
  23774418.309    -4998238.647  
  23334418.233   -18089152.809  
  23444152.137    -7985249.832  
  24249029.460    25557354.549  
  20779770.248   -63280779.499  
  20850068.877    -9759883.033  
  23171410.492    49055031.888  
  22778816.912   -18365611.105  
  20429201.765    -4954627.096  
 17  7  1  9 21 50.0000000  0  9G23G02G28G03G06G17G12G09G19
  23774172.145    -4999534.841  
  23332772.487   -18097794.651  
  23447461.664    -7967861.816  
  24252260.715    25574335.887  
  20779603.786   -63281653.338  
  20850696.861    -9756587.723  
  23169400.862    49044474.701  
  22777063.990   -18374823.329  
  20429046.034    -4955444.562  
 17  7  1  9 21 55.0000000  0  9G23G02G28G03G06G17G12G09G19
  23773925.819    -5000818.513  
  23331129.727   -18106434.655  
  23450768.739    -7950470.984  
  24255492.095    25591320.379  
  20779438.021   -63282522.238  
  20851324.683    -9753281.464  
  23167394.648    49033931.029  
  22775312.480   -18384025.662  
  20428891.287    -4956251.156  
 17  7  1  9 22  0.0000000  0  9G23G02G28G03G06G17G12G09G19
  23773684.058    -5002089.840  
  23329487.239   -18115072.855  
  23454079.236    -7933077.373  
  24258724.177    25608307.913  
  20779273.673   -63283386.326  
  20851956.785    -9749964.302  
  23165390.997    49023400.853  
  22773564.390   -18393218.185  
  20428741.248    -4957046.961  
 17  7  1  9 22  5.0000000  0  9G23G02G28G03G06G17G12G09G19
  23773443.467    -5003348.836  
  23327842.773   -18123709.255  
  23457392.905    -7915681.127  
  24261956.284    25625298.424  
  20779110.351   -63284245.709  
  20852589.198    -9746636.317  
  23163390.089    49012884.022  
  22771816.612   -18402401.029  
  20428591.521    -4957832.008  
 17  7  1  9 22 10.0000000  0  9G23G02G28G03G06G17G12G09G19
  23773206.592    -5004595.494  
  23326199.162   -18132343.764  
  23460700.131    -7898282.213  
  24265191.534    25642291.976  
  20778948.170   -63285100.218  
  20853226.042    -9743296.924  
  23161391.037    49002380.696  
  22770068.973   -18411573.993  
  20428443.220    -4958606.268  
 17  7  1  9 22 15.0000000  0  9G23G02G28G03G06G17G12G09G19
  23772971.974    -5005829.644  
  23324557.091   -18140976.305  
  23464011.759    -7880880.412  
  24268425.034    25659288.676  
  20778786.242   -63285949.782  
  20853862.996    -9739947.504  
  23159395.100    48991890.905  
  22768325.736   -18420737.043  
  20428298.606    -4959369.602  
 17  7  1  9 22 20.0000000  0  9G23G02G28G03G06G17G12G09G19
  23772738.934    -5007051.482  
  23322915.883   -18149607.126  
  23467325.253    -7863476.038  
  24271660.686    25676288.282  
  20778625.035   -63286794.697  
  20854502.388    -9736586.777  
  23157400.170    48981414.582  
  22766583.363   -18429890.350  
  20428155.571    -4960122.183  
 17  7  1  9 22 25.0000000  0  9G23G02G28G03G06G17G12G09G19
  23772509.603    -5008260.803  
  23321272.089   -18158236.111  
  23470638.306    -7846068.958  
  24274897.042    25693290.882  
  20778465.962   -63287634.743  
  20855144.201    -9733215.116  
  23155408.089    48970951.836  
  22764842.409   -18439033.762  
  20428014.814    -4960863.897  
 17  7  1  9 22 30.0000000  0  9G23G02G28G03G06G17G12G09G19
  23772282.000    -5009457.704  
  23319631.311   -18166863.187  
  23473951.942    -7828659.183  
  24278131.548    25710296.540  
  20778307.044   -63288469.926  
  20855787.742    -9729832.481  
  23153422.173    48960502.724  
  22763106.188   -18448167.272  
  20427875.213    -4961594.747  
 17  7  1  9 22 35.0000000  0  9G23G02G28G03G06G17G12G09G19
  23772057.548    -5010642.219  
  23317990.105   -18175488.518  
  23477263.864    -7811246.835  
  24281369.348    25727305.107  
  20778148.986   -63289300.361  
  20856433.289    -9726438.974  
  23151434.686    48950066.991  
  22761369.970   -18457290.955  
  20427737.475    -4962314.714  
 17  7  1  9 22 40.0000000  0  9G23G02G28G03G06G17G12G09G19
  23771834.286    -5011814.257  
  23316348.659   -18184111.959  
  23480578.692    -7793831.783  
  24284606.191    25744316.701  
  20777991.975   -63290125.956  
  20857081.456    -9723034.541  
  23149451.249    48939644.835  
  22759635.943   -18466404.683  
  20427603.931    -4963023.868  
 17  7  1  9 22 45.0000000  0  9G23G02G28G03G06G17G12G09G19
  23771613.074    -5012973.779  
  23314707.260   -18192733.602  
  23483892.566    -7776414.065  
  24287844.513    25761331.273  
  20777836.014   -63290946.698  
  20857732.676    -9719619.090  
  23147471.152    48929236.313  
  22757903.967   -18475508.473  
  20427470.578    -4963722.118  
 17  7  1  9 22 50.0000000  0  9G23G02G28G03G06G17G12G09G19
  23771393.544    -5014120.916  
  23313068.401   -18201353.427  
  23487207.979    -7758993.748  
  24291081.655    25778348.771  
  20777680.732   -63291762.683  
  20858383.145    -9716192.754  
  23145494.739    48918841.290  
  22756173.386   -18484602.403  
  20427338.763    -4964409.540  
 17  7  1  9 22 55.0000000  0  9G23G02G28G03G06G17G12G09G19
  23771177.909    -5015255.598  
  23311426.712   -18209971.453  
  23490523.280    -7741570.826  
  24294320.831    25795369.174  
  20777526.197   -63292573.879  
  20859038.224    -9712755.477  
  23143517.213    48908459.799  
  22754443.266   -18493686.381  
  20427209.984    -4965086.034  
 17  7  1  9 23  0.0000000  0  9G23G02G28G03G06G17G12G09G19
  23770964.105    -5016377.801  
  23309788.284   -18218587.620  
  23493838.552    -7724145.297  
  24297560.836    25812392.527  
  20777372.205   -63293380.233  
  20859694.562    -9709307.230  
  23141544.952    48898091.932  
  22752717.552   -18502760.354  
  20427084.468    -4965751.652  
 17  7  1  9 23  5.0000000  0  9G23G02G28G03G06G17G12G09G19
  23770753.372    -5017487.466  
  23308148.207   -18227201.901  
  23497154.892    -7706717.101  
  24300800.909    25829418.885  
  20777220.999   -63294181.742  
  20860351.825    -9705847.986  
  23139574.046    48887737.745  
  22750992.335   -18511824.316  
  20426958.875    -4966406.311  
 17  7  1  9 23 10.0000000  0  9G23G02G28G03G06G17G12G09G19
  23770542.785    -5018584.776  
  23306509.276   -18235814.415  
  23500472.809    -7689286.441  
  24304039.695    25846448.013  
  20777068.793   -63294978.532  
  20861012.667    -9702377.867  
  23137607.005    48877397.114  
  22749268.980   -18520878.428  
  20426836.289    -4967050.129  
 17  7  1  9 23 15.0000000  0  9G23G02G28G03G06G17G12G09G19
  23770336.547    -5019669.567  
  23304869.257   -18244425.097  
  23503788.349    -7671853.155  
  24307280.255    25863480.137  
  20776917.931   -63295770.492  
  20861674.425    -9698896.763  
  23135641.452    48867070.102  
  22747548.257   -18529922.493  
  20426717.766    -4967683.001  
 17  7  1  9 23 20.0000000  0  9G23G02G28G03G06G17G12G09G19
  23770133.333    -5020741.843  
  23303232.405   -18253033.941  
  23507108.774    -7654417.267  
  24310525.557    25880515.146  
  20776767.662   -63296557.661  
  20862339.493    -9695404.669  
  23133679.210    48856756.734  
  22745827.983   -18538956.500  
  20426598.262    -4968304.937  
 17  7  1  9 23 25.0000000  0  9G23G02G28G03G06G17G12G09G19
  23769932.713    -5021801.675  
  23301594.856   -18261640.953  
  23510426.498    -7636978.952  
  24313765.439    25897552.989  
  20776619.270   -63297340.031  
  20863005.438    -9691901.604  
  23131720.133    48846456.984  
  22744112.019   -18547980.528  
  20426482.352    -4968916.015  
 17  7  1  9 23 30.0000000  0  9G23G02G28G03G06G17G12G09G19
  23769732.557    -5022849.048  
  23299958.343   -18270246.226  
  23513745.688    -7619538.110  
  24317009.649    25914593.699  
  20776471.200   -63298117.627  
  20863674.279    -9688387.582  
  23129761.520    48836170.872  
  22742396.663   -18556994.542  
  20426368.337    -4969516.184  
 17  7  1  9 23 35.0000000  0  9G23G02G28G03G06G17G12G09G19
  23769536.114    -5023883.962  
  23298319.533   -18278849.703  
  23517064.298    -7602094.818  
  24320253.135    25931637.208  
  20776323.980   -63298890.480  
  20864345.402    -9684862.610  
  23127805.762    48825898.331  
  22740684.876   -18565998.583  
  20426255.889    -4970105.468  
 17  7  1  9 23 40.0000000  0  9G23G02G28G03G06G17G12G09G19
  23769339.613    -5024906.333  
  23296684.387   -18287451.308  
  23520386.141    -7584649.011  
  24323496.708    25948683.603  
  20776177.991   -63299658.535  
  20865017.612    -9681326.596  
  23125854.954    48815639.520  
  22738972.317   -18574992.513  
  20426145.101    -4970683.818  
 17  7  1  9 23 45.0000000  0  9G23G02G28G03G06G17G12G09G19
  23769150.725    -5025916.303  
  23295046.836   -18296051.176  
  23523706.725    -7567200.751  
  24326740.451    25965732.814  
  20776032.603   -63300421.840  
  20865692.999    -9677779.664  
  23123903.889    48805394.329  
  22737262.647   -18583976.428  
  20426037.202    -4971251.238  
 17  7  1  9 23 50.0000000  0  9G23G02G28G03G06G17G12G09G19
  23768959.600    -5026913.811  
  23293412.199   -18304649.294  
  23527027.362    -7549750.083  
  24329986.251    25982784.765  
  20775887.839   -63301180.398  
  20866370.585    -9674221.749  
  23121957.741    48795162.802  
  22735555.893   -18592950.289  
  20425931.503    -4971807.756  
 17  7  1  9 23 55.0000000  0  9G23G02G28G03G06G17G12G09G19
  23768770.773    -5027898.764  
  23291774.853   -18313245.578  
  23530348.007    -7532296.982  
  24333232.202    25999839.559  
  20775745.660   -63301934.139  
  20867049.754    -9670652.807  
  23120013.033    48784945.018  
  22733849.146   -18601914.025  
  20425827.959    -4972353.295  
 17  7  1  9 24  0.0000000  0  9G23G02G28G03G06G17G12G09G19
  23768587.421    -5028871.220  
  23290139.118   -18321840.028  
  23533668.833    -7514841.398  
  24336476.188    26016897.157  
  20775603.089   -63302683.133  
  20867730.534    -9667072.860  
  23118072.512    48774740.927  
  22732144.155   -18610867.671  
  20425726.741    -4972887.904  
 17  7  1  9 24  5.0000000  0  9G23G02G28G03G06G17G12G09G19
  23768402.287    -5029831.139  
  23288505.035   -18330432.718  
  23536990.024    -7497383.357  
  24339722.398    26033957.566  
  20775460.311   -63303427.358  
  20868413.968    -9663481.882  
  23116132.785    48764550.543  
  22730443.821   -18619811.195  
  20425627.177    -4973411.561  
 17  7  1  9 24 10.0000000  0  9G23G02G28G03G06G17G12G09G19
  23768224.625    -5030778.529  
  23286869.266   -18339023.571  
  23540311.961    -7479923.004  
  24342969.069    26051020.740  
  20775320.425   -63304166.771  
  20869098.577    -9659879.912  
  23114196.953    48754373.928  
  22728743.374   -18628744.578  
  20425530.218    -4973924.240  
 17  7  1  9 24 15.0000000  0  9G23G02G28G03G06G17G12G09G19
  23768045.880    -5031713.396  
  23285235.706   -18347612.677  
  23543635.248    -7462460.208  
  24346217.233    26068086.661  
  20775180.888   -63304901.468  
  20869786.398    -9656266.968  
  23112261.612    48744210.988  
  22727046.711   -18637667.858  
  20425434.038    -4974425.971  
 17  7  1  9 24 20.0000000  0  9G23G02G28G03G06G17G12G09G19
  23767869.766    -5032635.627  
  23283601.628   -18356199.882  
  23546959.878    -7444994.935  
  24349465.166    26085155.483  
  20775040.833   -63305631.240  
  20870475.990    -9652642.883  
  23110330.189    48734061.900  
  22725348.528   -18646580.840  
  20425341.060    -4974916.592  
 17  7  1  9 24 25.0000000  0  9G23G02G28G03G06G17G12G09G19
  23767696.869    -5033545.418  
  23281968.192   -18364785.454  
  23550283.146    -7427527.442  
  24352715.313    26102226.966  
  20774903.708   -63306356.380  
  20871168.083    -9649007.905  
  23108401.840    48723926.465  
  22723655.279   -18655483.760  
  20425249.153    -4975396.349  
 17  7  1  9 24 30.0000000  0  9G23G02G28G03G06G17G12G09G19
  23767526.872    -5034442.736  
  23280334.651   -18373369.324  
  23553610.029    -7410057.666  
  24355964.498    26119300.987  
  20774766.336   -63307076.863  
  20871861.360    -9645361.981  
  23106476.249    48713804.767  
  22721963.643   -18664376.605  
  20425158.858    -4975865.306  
 17  7  1  9 24 35.0000000  0  9G23G02G28G03G06G17G12G09G19
  23767359.655    -5035327.512  
  23278701.457   -18381951.365  
  23556934.112    -7392585.489  
  24359212.313    26136377.857  
  20774630.170   -63307792.524  
  20872559.420    -9641704.985  
  23104552.721    48703696.860  
  22720273.641   -18673259.209  
  20425072.774    -4976323.222  
 17  7  1  9 24 40.0000000  0  9G23G02G28G03G06G17G12G09G19
  23767193.153    -5036199.751  
  23277069.122   -18390531.673  
  23560256.764    -7375111.013  
  24362462.846    26153457.346  
  20774494.719   -63308503.492  
  20873256.192    -9638037.040  
  23102632.914    48693602.619  
  22718583.926   -18682131.680  
  20424987.549    -4976770.176  
 17  7  1  9 24 45.0000000  0  9G23G02G28G03G06G17G12G09G19
  23767029.199    -5037059.451  
  23275435.471   -18399110.180  
  23563581.534    -7357634.210  
  24365713.209    26170539.562  
  20774360.099   -63309209.691  
  20873955.654    -9634358.049  
  23100713.509    48683522.242  
  22716899.048   -18690993.878  
  20424904.871    -4977206.082  
 17  7  1  9 24 50.0000000  0  9G23G02G28G03G06G17G12G09G19
  23766867.428    -5037906.514  
  23273804.002   -18407686.872  
  23566910.347    -7340155.089  
  24368965.181    26187624.487  
  20774226.374   -63309911.085  
  20874658.444    -9630667.960  
  23098798.575    48673455.635  
  22715213.920   -18699845.853  
  20424823.231    -4977630.974  
 17  7  1  9 24 55.0000000  0  9G23G02G28G03G06G17G12G09G19
  23766708.028    -5038741.055  
  23272171.900   -18416261.825  
  23570236.809    -7322673.723  
  24372216.377    26204712.142  
  20774093.876   -63310607.769  
  20875362.175    -9626966.860  
  23096884.868    48663402.882  
  22713533.024   -18708687.609  
  20424744.535    -4978044.847  
 17  7  1  9 25  0.0000000  0  9G23G02G28G03G06G17G12G09G19
  23766554.384    -5039563.118  
  23270540.403   -18424835.013  
  23573564.878    -7305190.047  
  24375468.464    26221802.358  
  20773962.124   -63311299.739  
  20876069.086    -9623254.737  
  23094974.628    48653363.994  
  22711849.298   -18717519.127  
  20424668.304    -4978447.679  
 17  7  1  9 25  5.0000000  0  9G23G02G28G03G06G17G12G09G19
  23766398.712    -5040372.512  
  23268910.312   -18433406.447  
  23576892.207    -7287704.114  
  24378722.673    26238895.279  
  20773832.352   -63311986.950  
  20876778.691    -9619531.587  
  23093065.365    48643338.911  
  22710170.985   -18726340.360  
  20424593.765    -4978839.469  
 17  7  1  9 25 10.0000000  0  9G23G02G28G03G06G17G12G09G19
  23766249.126    -5041169.406  
  23267278.293   -18441976.095  
  23580215.605    -7270215.914  
  24381974.525    26255990.852  
  20773702.942   -63312669.366  
  20877487.656    -9615797.296  
  23091162.330    48633327.684  
  22708495.896   -18735151.281  
  20424521.592    -4979220.183  
 17  7  1  9 25 15.0000000  0  9G23G02G28G03G06G17G12G09G19
  23766099.002    -5041953.624  
  23265647.883   -18450543.902  
  23583544.331    -7252725.459  
  24385228.271    26273089.117  
  20773572.851   -63313347.050  
  20878200.233    -9612051.933  
  23089258.042    48623330.233  
  22706819.696   -18743951.889  
  20424451.170    -4979589.858  
 17  7  1  9 25 20.0000000  0  9G23G02G28G03G06G17G12G09G19
  23765950.398    -5042725.267  
  23264017.706   -18459109.908  
  23586872.718    -7235232.724  
  24388483.538    26290190.053  
  20773444.852   -63314019.909  
  20878915.618    -9608295.440  
  23087359.281    48613346.741  
  22705147.736   -18752742.117  
  20424380.980    -4979948.441  
 17  7  1  9 25 25.0000000  0  9G23G02G28G03G06G17G12G09G19
  23765806.993    -5043484.313  
  23262389.721   -18467674.256  
  23590203.584    -7217737.840  
  24391738.852    26307293.528  
  20773318.332   -63314688.116  
  20879633.054    -9604527.958  
  23085461.998    48603376.989  
  22703475.536   -18761522.169  
  20424316.848    -4980296.078  
 17  7  1  9 25 30.0000000  0  9G23G02G28G03G06G17G12G09G19
  23765666.830    -5044230.772  
  23260759.542   -18476236.800  
  23593535.404    -7200240.748  
  24394993.974    26324399.651  
  20773191.763   -63315351.555  
  20880351.156    -9600749.385  
  23083568.386    48593421.151  
  22701808.440   -18770291.804  
  20424252.381    -4980632.616  
 17  7  1  9 25 35.0000000  0  9G23G02G28G03G06G17G12G09G19
  23765524.690    -5044964.658  
  23259130.105   -18484797.689  
  23596865.390    -7182741.542  
  24398248.980    26341508.265  
  20773066.078   -63316010.353  
  20881073.006    -9596959.836  
  23081676.948    48583479.063  
  22700140.654   -18779051.179  
  20424190.945    -4980958.174  
 17  7  1  9 25 40.0000000  0  9G23G02G28G03G06G17G12G09G19
  23765390.361    -5045685.980  
  23257500.895   -18493356.788  
  23600195.602    -7165240.160  
  24401504.927    26358619.470  
  20772942.195   -63316664.422  
  20881796.226    -9593159.234  
  23079785.879    48573550.913  
  22698476.529   -18787800.224  
  20424129.592    -4981272.678  
 17  7  1  9 25 45.0000000  0  9G23G02G28G03G06G17G12G09G19
  23765254.213    -5046394.810  
  23255872.442   -18501914.245  
  23603525.570    -7147736.706  
  24404760.345    26375733.183  
  20772818.353   -63317313.823  
  20882521.635    -9589347.595  
  23077900.433    48563636.565  
  22696813.734   -18796538.936  
  20424073.576    -4981576.174  
 17  7  1  9 25 50.0000000  0  9G23G02G28G03G06G17G12G09G19
  23765119.571    -5047090.964  
  23254244.778   -18510469.870  
  23606858.617    -7130231.053  
  24408017.839    26392849.477  
  20772695.587   -63317958.494  
  20883248.549    -9585524.834  
  23076016.921    48553736.134  
  22695151.585   -18805267.273  
  20424018.207    -4981868.638  
 17  7  1  9 25 55.0000000  0  9G23G02G28G03G06G17G12G09G19
  23764990.174    -5047774.546  
  23252616.207   -18519023.808  
  23610188.897    -7112723.349  
  24411277.861    26409968.281  
  20772573.774   -63318598.458  
  20883978.133    -9581691.028  
  23074134.791    48543849.639  
  22693493.966   -18813985.233  
  20423963.647    -4982150.094  
 17  7  1  9 26  0.0000000  0  9G23G02G28G03G06G17G12G09G19
  23764862.250    -5048445.472  
  23250988.251   -18527575.972  
  23613521.651    -7095213.421  
  24414535.492    26427089.700  
  20772452.862   -63319233.684  
  20884709.477    -9577846.130  
  23072256.281    48533977.074  
  22691836.819   -18822692.806  
  20423912.707    -4982420.378  
 17  7  1  9 26  5.0000000  0  9G23G02G28G03G06G17G12G09G19
  23764734.520    -5049103.759  
  23249363.350   -18536126.400  
  23616850.736    -7077701.412  
  24417791.743    26444213.553  
  20772332.859   -63319864.215  
  20885442.588    -9573990.173  
  23070381.971    48524118.436  
  22690179.866   -18831389.981  
  20423863.105    -4982679.611  
 17  7  1  9 26 10.0000000  0  9G23G02G28G03G06G17G12G09G19
  23764613.924    -5049749.360  
  23247734.851   -18544675.095  
  23620187.527    -7060187.334  
  24421050.548    26461339.973  
  20772213.550   -63320489.972  
  20886179.398    -9570123.076  
  23068505.923    48514273.742  
  22688528.758   -18840076.658  
  20423816.344    -4982927.698  
 17  7  1  9 26 15.0000000  0  9G23G02G28G03G06G17G12G09G19
  23764493.398    -5050382.399  
  23246109.857   -18553222.030  
  23623520.811    -7042671.137  
  24424312.429    26478468.880  
  20772096.173   -63321111.089  
  20886917.853    -9566244.946  
  23066636.670    48504443.005  
  22686874.859   -18848752.913  
  20423770.941    -4983164.695  
 17  7  1  9 26 20.0000000  0  9G23G02G28G03G06G17G12G09G19
  23764374.933    -5051002.831  
  23244482.631   -18561767.260  
  23626855.297    -7025152.846  
  24427572.937    26495600.296  
  20771978.424   -63321727.436  
  20887657.368    -9562355.632  
  23064767.333    48494626.220  
  22685227.887   -18857418.755  
  20423728.029    -4983390.564  
 17  7  1  9 26 25.0000000  0  9G23G02G28G03G06G17G12G09G19
  23764258.431    -5051610.613  
  23242858.369   -18570310.787  
  23630187.596    -7007632.518  
  24430832.260    26512734.181  
  20771861.778   -63322339.107  
  20888399.274    -9558455.241  
  23062903.106    48484823.418  
  22683580.301   -18866074.134  
  20423685.935    -4983605.360  
 17  7  1  9 26 30.0000000  0  9G23G02G28G03G06G17G12G09G19
  23764147.575    -5052205.702  
  23241231.168   -18578852.503  
  23633523.110    -6990110.158  
  24434093.365    26529870.594  
  20771746.344   -63322946.080  
  20889143.678    -9554543.688  
  23061038.659    48475034.566  
  22681935.929   -18874719.000  
  20423647.484    -4983809.008  
 17  7  1  9 26 35.0000000  0  9G23G02G28G03G06G17G12G09G19
  23764036.250    -5052788.252  
  23239607.933   -18587392.514  
  23636858.010    -6972585.784  
  24437353.858    26547009.426  
  20771632.442   -63323548.328  
  20889890.332    -9550621.021  
  23059178.321    48465259.766  
  22680292.948   -18883353.396  
  20423611.424    -4984001.537  
 17  7  1  9 26 40.0000000  0  9G23G02G28G03G06G17G12G09G19
  23763926.435    -5053358.159  
  23237982.203   -18595930.860  
  23640190.558    -6955059.455  
  24440616.720    26564150.643  
  20771518.621   -63324145.926  
  20890638.926    -9546687.282  
  23057323.500    48455498.855  
  22678652.193   -18891977.331  
  20423577.019    -4984182.985  
 17  7  1  9 26 45.0000000  0  9G23G02G28G03G06G17G12G09G19
  23763821.137    -5053915.426  
  23236357.268   -18604467.378  
  23643526.763    -6937531.073  
  24443878.803    26581294.382  
  20771405.166   -63324738.756  
  20891389.889    -9542742.357  
  23055468.044    48445752.027  
  22677012.519   -18900590.711  
  20423543.553    -4984353.239  
 17  7  1  9 26 50.0000000  0 10G23G02G28G03G05G06G17G12G09G19
  23763716.053    -5054459.973  
  23234732.835   -18613002.248  
  23646863.326    -6920000.697  
  24447141.817    26598440.523  
  24562699.992    30513683.111  
  20771293.358   -63325326.983  
  20892142.928    -9538786.403  
  23053615.522    48436019.133  
  22675375.494   -18909193.601  
  20423513.163    -4984512.426  
 17  7  1  9 26 55.0000000  0 10G23G02G28G03G05G06G17G12G09G19
  23763616.633    -5054991.937  
  23233108.484   -18621535.386  
  23650197.826    -6902468.364  
  24450404.485    26615589.027  
  24559264.669    30495626.223  
  20771180.773   -63325910.486  
  20892897.766    -9534819.306  
  23051766.946    48426300.222  
  22673740.268   -18917785.982  
  20423486.720    -4984660.478  
 17  7  1  9 27  0.0000000  0 10G23G02G28G03G05G06G17G12G09G19
  23763514.802    -5055511.163  
  23231486.014   -18630066.819  
  23653535.781    -6884934.092  
  24453668.891    26632739.965  
  24555825.791    30477572.832  
  20771072.645   -63326489.324  
  20893654.773    -9530841.104  
  23049920.252    48416595.348  
  22672107.210   -18926367.829  
  20423460.155    -4984797.391  
 17  7  1  9 27  5.0000000  0 10G23G02G28G03G05G06G17G12G09G19
  23763420.271    -5056017.675  
  23229863.977   -18638596.510  
  23656873.740    -6867397.811  
  24456933.443    26649893.346  
  24552390.780    30459523.027  
  20770962.804   -63327063.393  
  20894413.786    -9526851.697  
  23048075.850    48406904.571  
  22670476.873   -18934939.041  
  20423435.167    -4984923.096  
 17  7  1  9 27 10.0000000  0 10G23G02G28G03G05G06G17G12G09G19
  23763327.794    -5056511.670  
  23228239.988   -18647124.544  
  23660209.602    -6849859.666  
  24460197.616    26667049.085  
  24548958.537    30441476.679  
  20770855.159   -63327632.867  
  20895175.853    -9522851.238  
  23046233.073    48397227.807  
  22668846.587   -18943499.765  
  20423413.234    -4985037.727  
 17  7  1  9 27 15.0000000  0 10G23G02G28G03G05G06G17G12G09G19
  23763234.973    -5056992.879  
  23226616.369   -18655650.861  
  23663546.551    -6832319.547  
  24463461.589    26684207.200  
  24545528.097    30423433.913  
  20770747.170   -63328197.622  
  20895937.863    -9518839.609  
  23044394.959    48387565.199  
  22667220.536   -18952049.872  
  20423395.107    -4985141.179  
 17  7  1  9 27 20.0000000  0 10G23G02G28G03G05G06G17G12G09G19
  23763147.424    -5057461.492  
  23224996.306   -18664175.526  
  23666883.479    -6814777.610  
  24466729.403    26701367.623  
  24542095.632    30405394.653  
  20770640.877   -63328757.744  
  20896704.288    -9514816.888  
  23042560.116    48377916.567  
  22665594.607   -18960589.437  
  20423376.529    -4985233.506  
 17  7  1  9 27 25.0000000  0 10G23G02G28G03G05G06G17G12G09G19
  23763061.386    -5057917.393  
  23223373.890   -18672698.436  
  23670225.351    -6797233.690  
  24469993.433    26718530.450  
  24538662.102    30387359.027  
  20770534.806   -63329313.132  
  20897471.364    -9510782.957  
  23040723.634    48368282.095  
  22663971.332   -18969118.312  
  20423361.751    -4985314.620  
 17  7  1  9 27 30.0000000  0 10G23G02G28G03G05G06G17G12G09G19
  23762976.181    -5058360.547  
  23221751.878   -18681219.698  
  23673562.332    -6779687.932  
  24473258.439    26735695.581  
  24535225.684    30369326.919  
  20770430.570   -63329863.873  
  20898241.419    -9506737.893  
  23038893.280    48358661.752  
  22662352.611   -18977636.632  
  20423347.805    -4985384.630  
 17  7  1  9 27 35.0000000  0 10G23G02G28G03G05G06G17G12G09G19
  23762891.143    -5058791.119  
  23220131.463   -18689739.333  
  23676904.488    -6762140.373  
  24476524.756    26752862.969  
  24531798.590    30351298.249  
  20770326.070   -63330410.020  
  20899013.358    -9502681.736  
  23037064.809    48349055.329  
  22660732.053   -18986144.396  
  20423337.031    -4985443.540  
 17  7  1  9 27 40.0000000  0 10G23G02G28G03G05G06G17G12G09G19
  23762814.250    -5059208.949  
  23218508.748   -18698257.171  
  23680245.346    -6744590.891  
  24479791.636    26770032.816  
  24528366.764    30333273.329  
  20770222.563   -63330951.391  
  20899787.433    -9498614.366  
  23035241.909    48339463.083  
  22659114.347   -18994641.412  
  20423327.821    -4985491.125  
 17  7  1  9 27 45.0000000  0 10G23G02G28G03G05G06G17G12G09G19
  23762735.543    -5059614.052  
  23216888.942   -18706773.328  
  23683583.531    -6727039.535  
  24483061.995    26787204.956  
  24524938.991    30315251.962  
  20770120.818   -63331488.120  
  20900562.985    -9494535.860  
  23033417.338    48329884.911  
  22657499.119   -19003127.791  
  20423321.376    -4985527.556  
 17  7  1  9 27 50.0000000  0 10G23G02G28G03G05G06G17G12G09G19
  23762663.549    -5060006.500  
  23215269.266   -18715287.785  
  23686921.990    -6709486.448  
  24486328.479    26804379.296  
  24521512.923    30297234.208  
  20770019.777   -63332020.209  
  20901341.673    -9490446.201  
  23031597.905    48320320.805  
  22655887.599   -19011603.555  
  20423316.349    -4985552.815  
 17  7  1  9 27 55.0000000  0 10G23G02G28G03G05G06G17G12G09G19
  23762590.818    -5060386.251  
  23213651.142   -18723800.545  
  23690263.719    -6691931.510  
  24489597.660    26821555.985  
  24518084.972    30279220.014  
  20769919.143   -63332547.609  
  20902122.199    -9486345.367  
  23029779.882    48310770.816  
  22654275.914   -19020068.586  
  20423313.447    -4985566.853  
 17  7  1  9 28  0.0000000  0 10G23G02G28G03G05G06G17G12G09G19
  23762521.268    -5060753.246  
  23212028.042   -18732311.566  
  23693603.906    -6674374.766  
  24492866.587    26838734.977  
  24514657.627    30261209.487  
  20769819.543   -63333070.340  
  20902904.618    -9482233.360  
  23027965.040    48301234.945  
  22652668.984   -19028522.894  
  20423312.438    -4985569.653  
 17  7  1  9 28  5.0000000  0 10G23G02G28G03G05G06G17G12G09G19
  23762453.432    -5061107.485  
  23210409.662   -18740820.848  
  23696943.660    -6656816.139  
  24496134.796    26855916.353  
  24511229.563    30243202.611  
  20769721.371   -63333588.298  
  20903689.323    -9478109.979  
  23026154.487    48291713.301  
  22651060.477   -19036966.435  
  20423314.860    -4985561.148  
 17  7  1  9 28 10.0000000  0 10G23G02G28G03G05G06G17G12G09G19
  23762389.016    -5061449.104  
  23208789.551   -18749328.480  
  23700284.690    -6639255.806  
  24499405.281    26873099.818  
  24507801.629    30225199.352  
  20769623.616   -63334101.728  
  20904475.875    -9473975.561  
  23024345.352    48282205.715  
  22649455.248   -19045399.388  
  20423317.697    -4985541.568  
 17  7  1  9 28 15.0000000  0 10G23G02G28G03G05G06G17G12G09G19
  23762326.897    -5061777.888  
  23207173.167   -18757834.432  
  23703629.732    -6621693.610  
  24502676.058    26890285.652  
  24504378.852    30207199.717  
  20769527.154   -63334610.415  
  20905265.153    -9469829.956  
  23022539.371    48272712.374  
  22647853.889   -19053821.553  
  20423323.260    -4985510.682  
 17  7  1  9 28 20.0000000  0 10G23G02G28G03G05G06G17G12G09G19
  23762267.391    -5062093.995  
  23205554.103   -18766338.751  
  23706971.950    -6604129.731  
  24505946.731    26907473.618  
  24500955.542    30189203.752  
  20769431.017   -63335114.527  
  20906056.042    -9465673.220  
  23020734.430    48263233.122  
  22646251.566   -19062233.011  
  20423331.866    -4985468.612  
 17  7  1  9 28 25.0000000  0 10G23G02G28G03G05G06G17G12G09G19
  23762206.699    -5062397.544  
  23203934.567   -18774841.514  
  23710314.413    -6586564.310  
  24509218.793    26924663.686  
  24497529.900    30171211.259  
  20769335.696   -63335614.119  
  20906848.750    -9461505.465  
  23018933.740    48253767.916  
  22644654.353   -19070633.883  
  20423341.862    -4985415.492  
 17  7  1  9 28 30.0000000  0 10G23G02G28G03G05G06G17G12G09G19
  23762149.957    -5062688.210  
  23202317.837   -18783342.461  
  23713658.108    -6568996.998  
  24512490.941    26941856.065  
  24494105.776    30153222.580  
  20769241.464   -63336108.965  
  20907643.405    -9457326.375  
  23017134.138    48244317.040  
  22643057.083   -19079023.854  
  20423354.090    -4985350.991  
 17  7  1  9 28 35.0000000  0 10G23G02G28G03G05G06G17G12G09G19
  23762098.478    -5062966.224  
  23200699.788   -18791841.805  
  23717001.771    -6551428.114  
  24515761.198    26959050.600  
  24490684.482    30135237.579  
  20769148.059   -63336599.192  
  20908441.320    -9453136.184  
  23015339.657    48234880.226  
  22641462.072   -19087403.136  
  20423368.147    -4985275.342  
 17  7  1  9 28 40.0000000  0 10G23G02G28G03G05G06G17G12G09G19
  23762050.357    -5063231.419  
  23199083.093   -18800339.402  
  23720343.355    -6533857.423  
  24519036.673    26976247.390  
  24487262.540    30117256.289  
  20769056.296   -63337084.723  
  20909241.305    -9448934.746  
  23013546.816    48225457.727  
  22639869.417   -19095771.560  
  20423385.992    -4985188.372  
 17  7  1  9 28 45.0000000  0 10G23G02G28G03G05G06G17G12G09G19
  23762000.669    -5063483.976  
  23197467.121   -18808835.295  
  23723687.378    -6516285.073  
  24522306.861    26993446.356  
  24483843.323    30099278.730  
  20768963.537   -63337565.622  
  20910042.585    -9444722.084  
  23011755.986    48216049.426  
  22638280.775   -19104129.151  
  20423405.131    -4985090.121  
 17  7  1  9 28 50.0000000  0 10G23G02G28G03G05G06G17G12G09G19
  23761954.362    -5063723.731  
  23195850.094   -18817329.616  
  23727031.204    -6498711.058  
  24525580.286    27010647.497  
  24480423.624    30081304.783  
  20768872.871   -63338041.886  
  20910846.387    -9440498.257  
  23009969.108    48206655.298  
  22636691.078   -19112475.998  
  20423425.075    -4984980.675  
 17  7  1  9 28 55.0000000  0 10G23G02G28G03G05G06G17G12G09G19
  23761912.671    -5063950.719  
  23194233.676   -18825822.215  
  23730381.221    -6481135.386  
  24528854.178    27027850.822  
  24477002.101    30063334.577  
  20768783.673   -63338513.511  
  20911652.229    -9436263.227  
  23008183.842    48197275.417  
  22635103.994   -19120811.952  
  20423448.777    -4984859.899  
 17  7  1  9 29  0.0000000  0 10G23G02G28G03G05G06G17G12G09G19
  23761871.796    -5064164.982  
  23192618.791   -18834313.205  
  23733723.898    -6463558.107  
  24532128.458    27045056.250  
  24473585.116    30045368.050  
  20768695.150   -63338980.495  
  20912460.033    -9432017.025  
  23006402.255    48187909.729  
  22633520.732   -19129137.147  
  20423471.865    -4984727.880  
 17  7  1  9 29  5.0000000  0 10G23G02G28G03G05G06G17G12G09G19
  23761832.686    -5064366.480  
  23191002.235   -18842802.495  
  23737069.198    -6445979.216  
  24535403.929    27062263.800  
  24470166.891    30027405.245  
  20768607.674   -63339442.853  
  20913270.316    -9427759.597  
  23004622.717    48178558.283  
  22631940.665   -19137451.507  
  20423500.723    -4984584.628  
 17  7  1  9 29 10.0000000  0 10G23G02G28G03G05G06G17G12G09G19
  23761796.778    -5064555.323  
  23189389.025   -18851290.173  
  23740415.125    -6428398.716  
  24538676.163    27079473.366  
  24466747.860    30009446.084  
  20768520.969   -63339900.690  
  20914083.086    -9423491.071  
  23002845.810    48169220.965  
  22630358.506   -19145755.070  
  20423529.493    -4984430.175  
 17  7  1  9 29 15.0000000  0 10G23G02G28G03G05G06G17G12G09G19
  23761765.249    -5064731.381  
  23187772.323   -18859776.140  
  23743760.279    -6410816.685  
  24541952.346    27096685.158  
  24463331.348    29991490.737  
  20768434.063   -63340353.865  
  20914896.372    -9419211.301  
  23001071.564    48159897.947  
  22628782.013   -19154047.720  
  20423561.782    -4984264.439  
 17  7  1  9 29 20.0000000  0 10G23G02G28G03G05G06G17G12G09G19
  23761731.555    -5064894.690  
  23186158.465   -18868260.486  
  23747105.843    -6393232.974  
  24545226.365    27113898.987  
  24459915.534    29973539.117  
  20768348.713   -63340802.401  
  20915713.932    -9414920.276  
  22999299.160    48150589.226  
  22627206.504   -19162329.522  
  20423595.056    -4984087.419  
 17  7  1  9 29 25.0000000  0 10G23G02G28G03G05G06G17G12G09G19
  23761704.492    -5065045.211  
  23184544.370   -18876743.224  
  23750451.600    -6375647.707  
  24548502.293    27131114.936  
  24456498.909    29955591.279  
  20768264.556   -63341246.332  
  20916532.542    -9410618.080  
  22997530.812    48141294.722  
  22625633.476   -19170600.419  
  20423630.524    -4983899.135  
 17  7  1  9 29 30.0000000  0 10G23G02G28G03G05G06G17G12G09G19
  23761677.000    -5065182.863  
  23182931.419   -18885224.186  
  23753797.643    -6358060.720  
  24551780.081    27148333.094  
  24453083.859    29937647.360  
  20768180.256   -63341685.552  
  20917353.585    -9406304.498  
  22995764.753    48132014.616  
  22624059.589   -19178860.355  
  20423669.283    -4983699.396  
 17  7  1  9 29 35.0000000  0 10G23G02G28G03G05G06G17G12G09G19
  23761654.008    -5065307.773  
  23181316.959   -18893703.558  
  23757146.040    -6340472.272  
  24555057.362    27165553.192  
  24449666.727    29919707.164  
  20768098.025   -63342120.148  
  20918175.694    -9401979.722  
  22994001.906    48122748.911  
  22622490.346   -19187109.378  
  20423709.252    -4983488.444  
 17  7  1  9 29 40.0000000  0 10G23G02G28G03G05G06G17G12G09G19
  23761632.748    -5065419.855  
  23179703.658   -18902181.307  
  23760492.734    -6322882.302  
  24558335.086    27182775.399  
  24446255.905    29901770.737  
  20768015.664   -63342550.171  
  20919001.109    -9397643.743  
  22992242.079    48113497.387  
  22620921.976   -19195347.503  
  20423750.952    -4983266.198  
 17  7  1  9 29 45.0000000  0 10G23G02G28G03G05G06G17G12G09G19
  23761612.235    -5065519.251  
  23178092.106   -18910657.449  
  23763840.033    -6305290.865  
  24561614.415    27199999.683  
  24442845.688    29883838.182  
  20767935.338   -63342975.601  
  20919828.701    -9393296.532  
  22990483.571    48104260.211  
  22619357.930   -19203574.680  
  20423796.691    -4983032.636  
 17  7  1  9 29 50.0000000  0 10G23G02G28G03G05G06G17G12G09G19
  23761596.732    -5065605.847  
  23176478.123   -18919131.988  
  23767188.621    -6287697.928  
  24564889.311    27217225.942  
  24439433.039    29865909.364  
  20767854.729   -63343396.400  
  20920658.156    -9388938.101  
  22988728.929    48095037.239  
  22617793.314   -19211790.944  
  20423842.574    -4982787.795  
 17  7  1  9 29 55.0000000  0 10G23G02G28G03G05G06G17G12G09G19
  23761582.867    -5065679.656  
  23174865.349   -18927604.854  
  23770533.266    -6270103.394  
  24568170.710    27234454.265  
  24436022.172    29847984.424  
  20767775.900   -63343812.636  
  20921488.820    -9384568.420  
  22986975.782    48085828.686  
  22616231.624   -19219996.223  
  20423890.668    -4982531.629  
 17  7  1  9 30  0.0000000  0 10G23G02G28G03G05G06G17G12G09G19
  23761570.556    -5065740.716  
  23173253.985   -18936076.145  
  23773878.178    -6252507.479  
  24571448.511    27251684.514  
  24432612.000    29830063.324  
  20767696.908   -63344224.232  
  20922324.471    -9380187.579  
  22985227.337    48076634.370  
  22614672.632   -19228190.569  
  20423942.605    -4982264.200  
 17  7  1  9 30  5.0000000  0 10G23G02G28G03G05G06G17G12G09G19
  23761561.485    -5065788.869  
  23171643.143   -18944545.666  
  23777232.769    -6234909.924  
  24574727.263    27268916.961  
  24429201.920    29812146.242  
  20767619.868   -63344631.132  
  20923158.498    -9375795.359  
  22983478.697    48067454.539  
  22613114.305   -19236373.813  
  20423995.350    -4981985.285  
 17  7  1  9 30 10.0000000  0 10G23G02G28G03G05G06G17G12G09G19
  23761554.010    -5065824.101  
  23170030.463   -18953013.477  
  23780584.377    -6217310.894  
  24578007.612    27286151.451  
  24425791.862    29794233.040  
  20767542.851   -63345033.382  
  20923996.839    -9371391.767  
  22981734.372    48058289.116  
  22611561.294   -19244545.969  
  20424049.833    -4981694.984  
 17  7  1  9 30 15.0000000  0 10G23G02G28G03G05G06G17G12G09G19
  23761549.342    -5065846.671  
  23168419.016   -18961479.750  
  23783930.206    -6199710.462  
  24581288.478    27303387.881  
  24422382.180    29776323.554  
  20767467.496   -63345431.055  
  20924836.843    -9366977.086  
  22979994.000    48049137.928  
  22610007.227   -19252707.221  
  20424107.697    -4981393.438  
 17  7  1  9 30 20.0000000  0 10G23G02G28G03G05G06G17G12G09G19
  23761549.794    -5065856.378  
  23166809.541   -18969944.378  
  23787278.151    -6182108.583  
  24584567.023    27320626.333  
  24418977.473    29758417.952  
  20767392.395   -63345824.123  
  20925678.247    -9362551.113  
  22978255.456    48040001.160  
  22608456.277   -19260857.423  
  20424166.960    -4981080.527  
 17  7  1  9 30 25.0000000  0 10G23G02G28G03G05G06G17G12G09G19
  23761551.221    -5065853.346  
  23165198.465   -18978407.390  
  23790624.924    -6164505.264  
  24587848.688    27337866.685  
  24415573.312    29740516.185  
  20767318.555   -63346212.632  
  20926522.485    -9358113.893  
  22976520.748    48030878.730  
  22606906.444   -19268996.624  
  20424229.058    -4980756.300  
 17  7  1  9 30 30.0000000  0 10G23G02G28G03G05G06G17G12G09G19
  23761552.159    -5065837.451  
  23163587.616   -18986868.780  
  23793972.639    -6146900.528  
  24591130.868    27355109.047  
  24412165.944    29722618.329  
  20767246.374   -63346596.480  
  20927370.384    -9353665.350  
  22974785.981    48021770.726  
  22605362.418   -19277124.744  
  20424292.670    -4980420.639  
 17  7  1  9 30 35.0000000  0 10G23G02G28G03G05G06G17G12G09G19
  23761559.373    -5065808.766  
  23161979.179   -18995328.478  
  23797323.911    -6129294.340  
  24594412.740    27372353.347  
  24408760.415    29704724.340  
  20767173.742   -63346975.777  
  20928218.549    -9349205.593  
  22973056.774    48012677.082  
  22603816.083   -19285241.763  
  20424359.982    -4980073.631  
 17  7  1  9 30 40.0000000  0 10G23G02G28G03G05G06G17G12G09G19
  23761567.074    -5065767.288  
  23160369.512   -19003786.676  
  23800676.529    -6111686.927  
  24597691.809    27389599.513  
  24405356.948    29686834.177  
  20767102.457   -63347350.499  
  20929069.348    -9344734.583  
  22971329.486    48003597.835  
  22602273.383   -19293347.800  
  20424427.210    -4979715.339  
 17  7  1  9 30 45.0000000  0 10G23G02G28G03G05G06G17G12G09G19
  23761576.484    -5065712.971  
  23158759.121   -19012243.166  
  23804025.847    -6094078.125  
  24600976.736    27406847.656  
  24401952.471    29668947.950  
  20767031.735   -63347720.625  
  20929922.285    -9340252.310  
  22969602.762    47994532.985  
  22600733.394   -19301442.727  
  20424498.292    -4979345.660  
 17  7  1  9 30 50.0000000  0 10G23G02G28G03G05G06G17G12G09G19
  23761588.691    -5065645.793  
  23157150.955   -19020698.015  
  23807376.246    -6076467.888  
  24604256.304    27424097.752  
  24398549.789    29651065.701  
  20766962.809   -63348086.128  
  20930777.589    -9335758.682  
  22967877.547    47985482.584  
  22599195.915   -19309526.529  
  20424570.455    -4978964.540  
 17  7  1  9 30 55.0000000  0 10G23G02G28G03G05G06G17G12G09G19
  23761604.314    -5065565.746  
  23155541.769   -19029151.252  
  23810731.348    -6058856.320  
  24607540.432    27441349.722  
  24395148.520    29633187.380  
  20766893.149   -63348447.039  
  20931635.165    -9331253.755  
  22966159.468    47976446.659  
  22597658.275   -19317599.232  
  20424644.745    -4978572.055  
 17  7  1  9 31  0.0000000  0 10G23G02G28G03G05G06G17G12G09G19
  23761621.872    -5065472.808  
  23153934.232   -19037602.834  
  23814080.086    -6041243.432  
  24610824.636    27458603.733  
  24391745.609    29615313.077  
  20766825.853   -63348803.316  
  20932493.674    -9326737.510  
  22964442.895    47967425.129  
  22596124.717   -19325660.769  
  20424721.400    -4978168.095  
 17  7  1  9 31  5.0000000  0 10G23G02G28G03G05G06G17G12G09G19
  23761642.143    -5065367.090  
  23152324.687   -19046052.931  
  23817433.683    -6023629.298  
  24614108.547    27475859.409  
  24388346.412    29597442.598  
  20766759.411   -63349155.117  
  20933356.900    -9322210.095  
  22962729.750    47958418.004  
  22594593.728   -19333711.297  
  20424799.910    -4977752.919  
 17  7  1  9 31 10.0000000  0 10G23G02G28G03G05G06G17G12G09G19
  23761665.237    -5065248.420  
  23150718.680   -19054501.197  
  23820781.805    -6006013.733  
  24617392.564    27493117.196  
  24384945.460    29579576.237  
  20766693.216   -63349502.163  
  20934220.802    -9317671.255  
  22961020.145    47949425.494  
  22593062.988   -19341750.469  
  20424882.101    -4977326.162  
 17  7  1  9 31 15.0000000  0 10G23G02G28G03G05G06G17G12G09G19
  23761689.847    -5065117.101  
  23149112.471   -19062948.077  
  23824137.022    -5988397.020  
  24620678.238    27510376.608  
  24381547.597    29561713.613  
  20766627.964   -63349844.822  
  20935085.505    -9313121.356  
  22959311.339    47940447.224  
  22591537.054   -19349778.720  
  20424964.520    -4976888.212  
 17  7  1  9 31 20.0000000  0 10G23G02G28G03G05G06G17G12G09G19
  23761716.575    -5064972.862  
  23147505.089   -19071393.227  
  23827486.631    -5970778.978  
  24623962.311    27527637.937  
  24378149.277    29543855.077  
  20766563.686   -63350182.823  
  20935954.329    -9308559.991  
  22957606.083    47931483.489  
  22590009.660   -19357795.750  
  20425050.489    -4976438.763  
 17  7  1  9 31 25.0000000  0 10G23G02G28G03G05G06G17G12G09G19
  23761745.989    -5064815.738  
  23145896.386   -19079836.765  
  23830837.064    -5953159.604  
  24627249.784    27544901.218  
  24374751.067    29526000.554  
  20766499.803   -63350516.203  
  20936823.263    -9303987.287  
  22955902.080    47922534.255  
  22588484.809   -19365801.533  
  20425137.997    -4975977.833  
 17  7  1  9 31 30.0000000  0 10G23G02G28G03G05G06G17G12G09G19
  23761779.835    -5064645.813  
  23144289.254   -19088278.776  
  23834198.370    -5935539.059  
  24630532.103    27562166.240  
  24371353.569    29508150.078  
  20766437.348   -63350845.051  
  20937696.057    -9299403.357  
  22954202.940    47913599.454  
  22586964.534   -19373796.174  
  20425228.794    -4975505.563  
 17  7  1  9 31 35.0000000  0 10G23G02G28G03G05G06G17G12G09G19
  23761813.777    -5064462.965  
  23142683.506   -19096719.129  
  23837548.468    -5917917.260  
  24633817.523    27579433.212  
  24367957.025    29490303.631  
  20766376.850   -63351169.302  
  20938569.805    -9294808.090  
  22952505.613    47904679.172  
  22585444.927   -19381779.633  
  20425320.688    -4975021.852  
 17  7  1  9 31 40.0000000  0 10G23G02G28G03G05G06G17G12G09G19
  23761851.145    -5064267.387  
  23141078.322   -19105157.949  
  23840901.991    -5900294.216  
  24637104.365    27596701.844  
  24364562.333    29472461.090  
  20766314.340   -63351489.051  
  20939446.980    -9290201.665  
  22950809.709    47895773.363  
  22583927.315   -19389751.893  
  20425414.864    -4974526.804  
 17  7  1  9 31 45.0000000  0 10G23G02G28G03G05G06G17G12G09G19
  23761891.001    -5064058.852  
  23139474.767   -19113595.169  
  23844253.566    -5882669.987  
  24640388.974    27613972.361  
  24361168.126    29454622.655  
  20766255.462   -63351804.175  
  20940325.641    -9285583.865  
  22949118.439    47886882.060  
  22582413.765   -19397712.903  
  20425511.098    -4974020.298  
 17  7  1  9 31 50.0000000  0 10G23G02G28G03G05G06G17G12G09G19
  23761933.573    -5063837.555  
  23137867.203   -19122030.873  
  23847609.432    -5865044.564  
  24643675.726    27631244.617  
  24357774.775    29436788.142  
  20766196.010   -63352114.796  
  20941206.731    -9280954.842  
  22947427.166    47878005.245  
  22580901.644   -19405662.717  
  20425609.905    -4973502.421  
 17  7  1  9 31 55.0000000  0 10G23G02G28G03G05G06G17G12G09G19
  23761977.218    -5063603.351  
  23136263.002   -19130464.969  
  23850964.224    -5847417.854  
  24646962.836    27648518.684  
  24354380.208    29418957.666  
  20766137.201   -63352420.830  
  20942089.897    -9276314.470  
  22945742.690    47869142.938  
  22579389.451   -19413601.288  
  20425711.073    -4972973.068  
 17  7  1  9 32  0.0000000  0  9G23G02G03G05G06G17G12G09G19
  23762024.474    -5063356.229  
  23134657.689   -19138897.437  
  24650251.124    27665794.549  
  24350988.393    29401131.294  
  20766078.570   -63352722.245  
  20942974.670    -9271662.705  
  22944059.249    47860295.305  
  22577881.584   -19421528.522  
  20425813.563    -4972432.215  
 17  7  1  9 32  5.0000000  0  9G23G02G03G05G06G17G12G09G19
  23762073.353    -5063096.489  
  23133052.139   -19147328.561  
  24653539.318    27683071.906  
  24347596.053    29383308.613  
  20766022.705   -63353019.379  
  20943862.497    -9266999.895  
  22942378.004    47851462.011  
  22576375.625   -19429444.754  
  20425918.534    -4971880.168  
 17  7  1  9 32 10.0000000  0  9G23G02G03G05G06G17G12G09G19
  23762126.207    -5062823.734  
  23131449.992   -19155757.980  
  24656828.052    27700351.157  
  24344206.831    29365490.221  
  20765967.810   -63353311.840  
  20944752.152    -9262325.669  
  22940700.160    47842643.354  
  22574869.922   -19437349.624  
  20426025.762    -4971316.585  
 17  7  1  9 32 15.0000000  0  9G23G02G03G05G06G17G12G09G19
  23762179.508    -5062538.157  
  23129846.861   -19164185.812  
  24660115.374    27717632.107  
  24340817.627    29347675.860  
  20765913.220   -63353599.750  
  20945643.399    -9257640.111  
  22939023.194    47833839.198  
  22573370.103   -19445243.199  
  20426135.012    -4970741.568  
 17  7  1  9 32 20.0000000  0  9G23G02G03G05G06G17G12G09G19
  23762238.633    -5062239.694  
  23128242.685   -19172611.955  
  24663406.086    27734914.883  
  24337428.236    29329865.607  
  20765859.016   -63353883.059  
  20946537.609    -9252943.208  
  22937351.336    47825049.637  
  22571869.812   -19453125.407  
  20426246.938    -4970155.044  
 17  7  1  9 32 25.0000000  0  9G23G02G03G05G06G17G12G09G19
  23762295.504    -5061928.246  
  23126638.689   -19181036.437  
  24666694.832    27752199.515  
  24334039.168    29312059.635  
  20765807.424   -63354161.640  
  20947432.570    -9248234.834  
  22935681.661    47816274.739  
  22570369.844   -19460996.192  
  20426361.333    -4969556.876  
 17  7  1  9 32 30.0000000  0  9G23G02G03G05G06G17G12G09G19
  23762356.734    -5061603.989  
  23125036.904   -19189459.401  
  24669983.214    27769485.719  
  24330652.168    29294257.721  
  20765754.466   -63354435.797  
  20948331.459    -9243515.117  
  22934014.625    47807514.328  
  22568876.379   -19468855.707  
  20426476.651    -4968947.310  
 17  7  1  9 32 35.0000000  0  9G23G02G03G05G06G17G12G09G19
  23762422.502    -5061266.742  
  23123434.650   -19197880.743  
  24673272.414    27786773.715  
  24327263.698    29276459.905  
  20765703.185   -63354705.372  
  20949231.024    -9238784.097  
  22932351.843    47798768.426  
  22567381.158   -19476703.881  
  20426594.505    -4968326.274  
 17  7  1  9 32 40.0000000  0  9G23G02G03G05G06G17G12G09G19
  23762488.495    -5060916.599  
  23121832.334   -19206300.531  
  24676563.842    27804063.407  
  24323880.317    29258666.227  
  20765652.558   -63354970.388  
  20950133.962    -9234041.743  
  22930687.855    47790037.133  
  22565890.597   -19484540.686  
  20426715.731    -4967693.732  
 17  7  1  9 32 45.0000000  0  9G23G02G03G05G06G17G12G09G19
  23762557.422    -5060553.528  
  23120229.947   -19214718.671  
  24679854.340    27821354.768  
  24320493.144    29240876.711  
  20765603.577   -63355230.808  
  20951038.545    -9229287.986  
  22929030.235    47781320.597  
  22564401.825   -19492366.090  
  20426837.029    -4967049.622  
 17  7  1  9 32 50.0000000  0  9G23G02G03G05G06G17G12G09G19
  23762629.779    -5060177.575  
  23118626.698   -19223135.352  
  24683145.264    27838647.716  
  24317109.546    29223091.187  
  20765554.020   -63355486.774  
  20951945.272    -9224523.035  
  22927372.754    47772618.582  
  22562914.338   -19500180.212  
  20426962.188    -4966394.147  
 17  7  1  9 32 55.0000000  0  9G23G02G03G05G06G17G12G09G19
  23762703.235    -5059788.700  
  23117026.408   -19231550.485  
  24686436.858    27855942.460  
  24313724.470    29205309.894  
  20765506.135   -63355738.146  
  20952853.526    -9219746.665  
  22925719.806    47763931.143  
  22561430.954   -19507982.902  
  20427089.160    -4965727.106  
 17  7  1  9 33  0.0000000  0  9G23G02G03G05G06G17G12G09G19
  23762779.391    -5059386.806  
  23115426.671   -19239964.062  
  24689728.862    27873238.752  
  24310342.380    29187532.692  
  20765459.947   -63355985.012  
  20953764.767    -9214959.020  
  22924069.987    47755258.349  
  22559947.837   -19515774.224  
  20427217.402    -4965048.628  
 17  7  1  9 33  5.0000000  0  9G23G02G03G05G06G17G12G09G19
  23762858.897    -5058972.027  
  23113825.277   -19248376.134  
  24693019.207    27890536.660  
  24306961.209    29169759.638  
  20765413.389   -63356227.383  
  20954678.499    -9210160.051  
  22922422.517    47746600.134  
  22558466.353   -19523554.220  
  20427348.993    -4964358.664  
 17  7  1  9 33 10.0000000  0  9G23G02G03G05G06G17G12G09G19
  23762940.102    -5058544.331  
  23112223.720   -19256786.631  
  24696309.963    27907836.220  
  24303578.586    29151990.820  
  20765367.241   -63356465.201  
  20955593.929    -9205349.714  
  22920778.891    47737956.567  
  22556988.428   -19531322.709  
  20427482.569    -4963657.198  
 17  7  1  9 33 15.0000000  0  9G23G02G03G05G06G17G12G09G19
  23763024.622    -5058103.820  
  23110623.333   -19265195.619  
  24699603.893    27925137.272  
  24300199.424    29134226.033  
  20765323.981   -63356698.551  
  20956511.530    -9200528.112  
  22919136.292    47729327.610  
  22555513.103   -19539079.866  
  20427618.746    -4962944.283  
 17  7  1  9 33 20.0000000  0  9G23G02G03G05G06G17G12G09G19
  23763111.676    -5057650.473  
  23109023.762   -19273603.024  
  24702897.493    27942439.996  
  24296819.360    29116465.420  
  20765279.390   -63356927.406  
  20957430.950    -9195695.120  
  22917497.228    47720713.235  
  22554039.597   -19546825.610  
  20427756.597    -4962219.896  
 17  7  1  9 33 25.0000000  0  9G23G02G03G05G06G17G12G09G19
  23763199.890    -5057184.089  
  23107424.350   -19282008.850  
  24706190.251    27959744.371  
  24293440.744    29098709.134  
  20765237.534   -63357151.627  
  20958352.531    -9190850.695  
  22915859.754    47712113.615  
  22552566.106   -19554559.799  
  20427896.897    -4961483.895  
 17  7  1  9 33 30.0000000  0  9G23G02G03G05G06G17G12G09G19
  23763289.455    -5056704.878  
  23105824.143   -19290413.135  
  24709481.498    27977050.267  
  24290062.333    29080956.988  
  20765194.882   -63357371.382  
  20959276.465    -9185994.894  
  22914226.778    47703528.607  
  22551096.541   -19562282.586  
  20428038.834    -4960736.402  
 17  7  1  9 33 35.0000000  0  9G23G02G03G05G06G17G12G09G19
  23763384.286    -5056212.620  
  23104226.340   -19298815.755  
  24712776.151    27994357.845  
  24286685.468    29063209.178  
  20765153.919   -63357586.492  
  20960202.804    -9181127.642  
  22912596.493    47694958.373  
  22549629.810   -19569993.827  
  20428183.890    -4959977.282  
 17  7  1  9 33 40.0000000  0  9G23G02G03G05G06G17G12G09G19
  23763480.814    -5055707.673  
  23102626.513   -19307216.968  
  24716069.638    28011666.888  
  24283309.441    29045465.416  
  20765113.651   -63357797.265  
  20961131.841    -9176249.181  
  22910968.477    47686402.627  
  22548164.633   -19577693.709  
  20428330.071    -4959206.810  
 17  7  1  9 33 45.0000000  0  9G23G02G03G05G06G17G12G09G19
  23763578.446    -5055189.672  
  23101029.794   -19315616.555  
  24719362.084    28028977.532  
  24279932.229    29027725.958  
  20765075.489   -63358003.432  
  20962061.982    -9171359.268  
  22909343.283    47677861.710  
  22546701.562   -19585382.019  
  20428478.930    -4958424.692  
 17  7  1  9 33 50.0000000  0  9G23G02G03G05G06G17G12G09G19
  23763678.922    -5054658.707  
  23099431.911   -19324014.578  
  24722657.373    28046289.703  
  24276558.290    29009990.759  
  20765036.593   -63358205.059  
  20962994.537    -9166457.965  
  22907720.216    47669335.421  
  22545240.475   -19593058.813  
  20428630.776    -4957631.060  
 17  7  1  9 33 55.0000000  0  9G23G02G03G05G06G17G12G09G19
  23763784.773    -5054114.848  
  23097833.967   -19332411.083  
  24725953.172    28063603.366  
  24273184.002    28992259.729  
  20764999.066   -63358402.228  
  20963929.462    -9161545.338  
  22906101.094    47660823.832  
  22543781.616   -19600724.142  
  20428781.844    -4956825.899  
 17  7  1  9 34  0.0000000  0  9G23G02G03G05G06G17G12G09G19
  23763889.326    -5053557.925  
  23096236.441   -19340805.976  
  24729247.530    28080918.625  
  24269811.135    28974533.101  
  20764962.387   -63358594.756  
  20964865.236    -9156621.239  
  22904484.394    47652327.108  
  22542324.177   -19608377.833  
  20428939.484    -4956009.053  
 17  7  1  9 34  5.0000000  0  9G23G02G03G05G06G17G12G09G19
  23763996.630    -5052988.183  
  23094640.093   -19349199.398  
  24732541.921    28098235.435  
  24266438.587    28956810.648  
  20764926.743   -63358782.847  
  20965805.049    -9151685.777  
  22902871.447    47643844.998  
  22540870.778   -19616020.043  
  20429096.155    -4955180.687  
 17  7  1  9 34 10.0000000  0  9G23G02G03G05G06G17G12G09G19
  23764108.130    -5052405.514  
  23093041.931   -19357591.363  
  24735836.500    28115553.680  
  24263066.943    28939092.391  
  20764892.289   -63358966.493  
  20966746.768    -9146739.038  
  22901257.974    47635377.582  
  22539418.283   -19623650.753  
  20429255.304    -4954340.839  
 17  7  1  9 34 15.0000000  0  9G23G02G03G05G06G17G12G09G19
  23764222.475    -5051809.993  
  23091445.898   -19365981.828  
  24739135.642    28132873.248  
  24259696.714    28921378.351  
  20764856.817   -63359145.699  
  20967689.616    -9141780.959  
  22899649.779    47626924.810  
  22537967.918   -19631270.014  
  20429417.013    -4953489.499  
 17  7  1  9 34 20.0000000  0  9G23G02G03G05G06G17G12G09G19
  23764337.428    -5051201.421  
  23089848.613   -19374370.681  
  24742429.096    28150194.454  
  24256326.090    28903668.727  
  20764824.385   -63359320.277  
  20968635.933    -9136811.296  
  22898044.480    47618486.850  
  22536520.593   -19638877.599  
  20429583.049    -4952626.475  
 17  7  1  9 34 25.0000000  0  9G23G02G03G05G06G17G12G09G19
  23764456.608    -5050579.829  
  23088253.265   -19382757.926  
  24745724.344    28167517.293  
  24252956.260    28885963.464  
  20764792.459   -63359490.297  
  20969583.758    -9131830.187  
  22896439.546    47610063.771  
  22535074.777   -19646473.428  
  20429749.306    -4951751.811  
 17  7  1  9 34 30.0000000  0 10G23G02G28G03G05G06G17G12G09G19
  23764577.911    -5049945.468  
  23086657.180   -19391143.868  
  23955055.725    19096822.978  
  24749019.856    28184841.271  
  24249586.979    28868262.327  
  20764760.941   -63359656.033  
  20970533.993    -9126837.966  
  22894842.172    47601655.225  
  22533633.230   -19654057.953  
  20429917.115    -4950865.798  
 17  7  1  9 34 35.0000000  0 10G23G02G28G03G05G06G17G12G09G19
  23764700.584    -5049298.116  
  23085061.890   -19399528.198  
  23958410.844    19114480.602  
  24752313.731    28202166.792  
  24246220.498    28850565.549  
  20764729.789   -63359817.219  
  20971486.169    -9121834.213  
  22893244.307    47593261.572  
  22532191.765   -19661630.750  
  20430087.437    -4949968.118  
 17  7  1  9 34 40.0000000  0 10G23G02G28G03G05G06G17G12G09G19
  23764825.095    -5048637.848  
  23083466.723   -19407911.033  
  23961766.371    19132139.057  
  24755610.877    28219493.790  
  24242854.568    28832873.068  
  20764700.191   -63359973.930  
  20972441.472    -9116819.093  
  22891649.426    47584882.620  
  22530753.569   -19669192.037  
  20430261.458    -4949058.870  
 17  7  1  9 34 45.0000000  0 10G23G02G28G03G05G06G17G12G09G19
  23764955.848    -5047964.299  
  23081872.074   -19416292.072  
  23965121.414    19149798.531  
  24758911.116    28236822.390  
  24239487.582    28815185.190  
  20764672.112   -63360125.847  
  20973397.293    -9111792.283  
  22890057.925    47576518.738  
  22529316.035   -19676741.369  
  20430436.856    -4948137.749  
 17  7  1  9 34 50.0000000  0 10G23G02G28G03G05G06G17G12G09G19
  23765083.402    -5047277.788  
  23080277.230   -19424671.587  
  23968471.684    19167458.637  
  24762213.307    28254152.521  
  24236122.405    28797501.614  
  20764642.550   -63360273.252  
  20974356.068    -9106754.132  
  22888469.806    47568169.697  
  22527882.026   -19684279.077  
  20430614.635    -4947205.043  
 17  7  1  9 34 55.0000000  0 10G23G02G28G03G05G06G17G12G09G19
  23765217.828    -5046578.298  
  23078682.533   -19433049.550  
  23971830.257    19185119.572  
  24765513.212    28271484.018  
  24232758.233    28779822.432  
  20764615.855   -63360416.129  
  20975316.420    -9101704.575  
  22886883.265    47559835.445  
  22526449.596   -19691805.060  
  20430792.990    -4946260.738  
 17  7  1  9 35  0.0000000  0 10G23G02G28G03G05G06G17G12G09G19
  23765353.828    -5045865.885  
  23077089.411   -19441426.053  
  23975190.977    19202781.151  
  24768811.973    28288816.922  
  24229394.492    28762147.647  
  20764589.732   -63360554.584  
  20976279.635    -9096643.638  
  22885299.444    47551515.926  
  22525020.886   -19699319.406  
  20430975.638    -4945304.836  
 17  7  1  9 35  5.0000000  0 10G23G02G28G03G05G06G17G12G09G19
  23765492.908    -5045140.611  
  23075494.788   -19449801.156  
  23978553.631    19220443.298  
  24772109.521    28306151.043  
  24226033.543    28744477.062  
  20764563.970   -63360688.653  
  20977245.357    -9091571.461  
  22883719.131    47543211.049  
  22523591.821   -19706822.250  
  20431160.650    -4944337.479  
 17  7  1  9 35 10.0000000  0 10G23G02G28G03G05G06G17G12G09G19
  23765631.118    -5044402.261  
  23073901.873   -19458174.656  
  23981910.837    19238106.231  
  24775407.916    28323486.644  
  24222671.725    28726810.934  
  20764539.914   -63360818.134  
  20978212.642    -9086487.801  
  22882142.814    47534921.090  
  22522166.037   -19714313.275  
  20431344.793    -4943358.424  
 17  7  1  9 35 15.0000000  0 10G23G02G28G03G05G06G17G12G09G19
  23765774.700    -5043651.044  
  23072308.176   -19466546.695  
  23985272.843    19255769.726  
  24778705.245    28340823.624  
  24219309.126    28709149.163  
  20764515.506   -63360943.203  
  20979182.723    -9081392.764  
  22880565.859    47526645.897  
  22520742.619   -19721792.691  
  20431535.882    -4942367.806  
 17  7  1  9 35 20.0000000  0 10G23G02G28G03G05G06G17G12G09G19
  23765919.400    -5042886.802  
  23070716.455   -19474917.262  
  23988626.809    19273433.883  
  24782003.833    28358161.945  
  24215950.077    28691491.737  
  20764493.504   -63361063.833  
  20980154.208    -9076286.340  
  22878995.316    47518385.508  
  22519322.037   -19729260.401  
  20431725.512    -4941365.597  
 17  7  1  9 35 25.0000000  0 10G23G02G28G03G05G06G17G12G09G19
  23766067.983    -5042109.651  
  23069123.180   -19483286.283  
  23991988.378    19291094.595  
  24785305.304    28375501.414  
  24212592.192    28673838.689  
  20764470.806   -63361179.974  
  20981128.431    -9071168.581  
  22877427.368    47510139.860  
  22517901.617   -19736716.433  
  20431918.740    -4940351.762  
 17  7  1  9 35 30.0000000  0 10G23G02G28G03G05G06G17G12G09G19
  23766218.795    -5041319.471  
  23067529.702   -19491653.775  
  23995349.457    19308759.950  
  24788607.143    28392842.459  
  24209231.815    28656190.109  
  20764449.049   -63361291.647  
  20982103.882    -9066039.313  
  22875859.932    47501909.136  
  22516487.289   -19744160.707  
  20432113.481    -4939326.259  
 17  7  1  9 35 35.0000000  0 10G23G02G28G03G05G06G17G12G09G19
  23766371.912    -5040516.177  
  23065936.096   -19500019.610  
  23998712.556    19326426.224  
  24791907.281    28410184.933  
  24205873.742    28638546.116  
  20764428.882   -63361398.646  
  20983082.353    -9060898.496  
  22874297.235    47493693.373  
  22515072.835   -19751593.077  
  20432310.814    -4938288.958  
 17  7  1  9 35 40.0000000  0 10G23G02G28G03G05G06G17G12G09G19
  23766525.882    -5039700.003  
  23064345.489   -19508384.096  
  24002072.929    19344092.883  
  24795205.409    28427528.582  
  24202516.808    28620906.434  
  20764409.281   -63361501.292  
  20984062.393    -9055746.373  
  22872737.535    47485492.375  
  22513659.518   -19759013.866  
  20432510.430    -4937240.141  
 17  7  1  9 35 45.0000000  0 10G23G02G28G03G05G06G17G12G09G19
  23766681.793    -5038870.767  
  23062755.106   -19516747.049  
  24005434.815    19361760.238  
  24798506.052    28444873.593  
  24199162.961    28603271.265  
  20764391.335   -63361599.422  
  20985046.234    -9050582.742  
  22871179.062    47477306.279  
  22512250.576   -19766422.786  
  20432713.132    -4936179.615  
 17  7  1  9 35 50.0000000  0 10G23G02G28G03G05G06G17G12G09G19
  23766845.089    -5038028.675  
  23061163.665   -19525108.603  
  24008800.650    19379428.013  
  24801806.494    28462219.801  
  24195807.054    28585640.396  
  20764373.047   -63361693.159  
  20986029.732    -9045407.821  
  22869624.396    47469134.959  
  22510841.864   -19773820.018  
  20432916.350    -4935107.565  
 17  7  1  9 35 55.0000000  0 10G23G02G28G03G05G06G17G12G09G19
  23767007.840    -5037173.500  
  23059572.683   -19533468.654  
  24012167.517    19397096.442  
  24805109.255    28479567.368  
  24192451.318    28568014.071  
  20764356.362   -63361782.444  
  20987016.980    -9040221.444  
  22868071.047    47460978.530  
  22509437.473   -19781205.524  
  20433121.887    -4934023.881  
 17  7  1  9 36  0.0000000  0 10G23G02G28G03G05G06G17G12G09G19
  23767172.804    -5036305.395  
  23057984.771   -19541827.242  
  24015529.726    19414765.386  
  24808408.505    28496916.187  
  24189099.798    28550392.200  
  20764340.458   -63361867.216  
  20988006.439    -9035023.606  
  22866522.199    47452837.022  
  22508033.148   -19788579.138  
  20433330.923    -4932928.494  
 17  7  1  9 36  5.0000000  0 10G23G02G28G03G05G06G17G12G09G19
  23767340.083    -5035424.158  
  23056392.591   -19550184.241  
  24018898.686    19432434.917  
  24811711.213    28514266.360  
  24185746.586    28532774.785  
  20764324.864   -63361947.443  
  20988997.498    -9029814.260  
  22864974.663    47444710.445  
  22506632.568   -19795940.916  
  20433541.415    -4931821.371  
 17  7  1  9 36 10.0000000  0 10G23G02G28G03G05G06G17G12G09G19
  23767510.906    -5034529.963  
  23054804.385   -19558539.801  
  24022265.182    19450104.917  
  24815012.888    28531617.773  
  24182395.059    28515161.900  
  20764310.384   -63362023.268  
  20989991.243    -9024593.539  
  22863431.674    47436598.718  
  22505235.104   -19803290.922  
  20433754.164    -4930702.563  
 17  7  1  9 36 15.0000000  0 10G23G02G28G03G05G06G17G12G09G19
  23767683.747    -5033622.762  
  23053212.044   -19566893.828  
  24025630.976    19467775.501  
  24818316.151    28548970.433  
  24179044.404    28497553.582  
  20764297.062   -63362094.578  
  20990985.717    -9019361.316  
  22861890.131    47428501.949  
  22503838.799   -19810629.041  
  20433969.503    -4929572.126  
 17  7  1  9 36 20.0000000  0 10G23G02G28G03G05G06G17G12G09G19
  23767858.306    -5032702.419  
  23051623.567   -19575246.308  
  24028998.059    19485446.651  
  24821618.699    28566324.475  
  24175693.894    28479949.745  
  20764284.314   -63362161.360  
  20991985.058    -9014117.561  
  22860353.168    47420420.209  
  22502443.353   -19817955.220  
  20434187.276    -4928429.906  
 17  7  1  9 36 25.0000000  0 10G23G02G28G03G05G06G17G12G09G19
  23768035.765    -5031769.244  
  23050034.414   -19583597.356  
  24032364.894    19503118.306  
  24824919.140    28583679.616  
  24172344.423    28462350.362  
  20764272.749   -63362223.737  
  20992984.294    -9008862.432  
  22858817.817    47412353.300  
  22501052.239   -19825269.629  
  20434406.375    -4927276.082  
 17  7  1  9 36 30.0000000  0 10G23G02G28G03G05G06G17G12G09G19
  23768215.478    -5030822.922  
  23048444.795   -19591946.898  
  24035729.832    19520790.494  
  24828222.549    28601036.106  
  24168996.777    28444755.587  
  20764261.290   -63362281.604  
  20993986.785    -9003595.753  
  22857285.434    47404301.326  
  22499662.233   -19832572.151  
  20434627.441    -4926110.530  
 17  7  1  9 36 35.0000000  0 10G23G02G28G03G05G06G17G12G09G19
  23768397.322    -5029863.708  
  23046857.594   -19600295.087  
  24039089.749    19538462.913  
  24831524.084    28618393.711  
  24165649.259    28427165.223  
  20764250.104   -63362335.100  
  20994990.693    -8998317.738  
  22855755.900    47396264.225  
  22498274.789   -19839862.885  
  20434852.643    -4924933.380  
 17  7  1  9 36 40.0000000  0 10G23G02G28G03G05G06G17G12G09G19
  23768583.424    -5028891.387  
  23045267.925   -19608641.705  
  24042451.489    19556135.964  
  24834829.160    28635752.470  
  24162302.564    28409579.449  
  20764242.030   -63362384.082  
  20995997.713    -8993028.206  
  22854229.620    47388242.140  
  22496889.598   -19847141.626  
  20435077.952    -4923744.442  
 17  7  1  9 36 45.0000000  0 10G23G02G28G03G05G06G17G12G09G19
  23768771.525    -5027906.017  
  23043681.256   -19616986.806  
  24045813.226    19573809.432  
  24838131.799    28653112.556  
  24158956.581    28391998.238  
  20764232.664   -63362428.552  
  20997006.732    -8987727.160  
  22852706.485    47380235.040  
  22495506.835   -19854408.482  
  20435307.263    -4922543.796  
 17  7  1  9 36 50.0000000  0 10G23G02G28G03G05G06G17G12G09G19
  23768960.914    -5026907.706  
  23042091.584   -19625330.456  
  24049175.392    19591483.371  
  24841432.436    28670473.755  
  24155612.315    28374421.582  
  20764225.874   -63362468.590  
  20998016.754    -8982414.678  
  22851184.781    47372242.935  
  22494126.936   -19861663.402  
  20435537.147    -4921331.457  
 17  7  1  9 36 55.0000000  0 10G23G02G28G03G05G06G17G12G09G19
  23769154.098    -5025896.372  
  23040505.849   -19633672.689  
  24052537.061    19609157.626  
  24844738.156    28687836.113  
  24152267.837    28356849.334  
  20764218.729   -63362504.254  
  20999029.568    -8977090.819  
  22849667.444    47364265.706  
  22492747.969   -19868906.534  
  20435770.540    -4920107.487  
 17  7  1  9 37  0.0000000  0 10G23G02G28G03G05G06G17G12G09G19
  23769349.693    -5024872.098  
  23038918.233   -19642013.502  
  24055901.426    19626832.170  
  24848043.854    28705199.497  
  24148925.198    28339281.613  
  20764212.708   -63362535.533  
  21000045.509    -8971755.568  
  22848153.663    47356303.383  
  22491371.126   -19876137.805  
  20436005.199    -4918871.883  
 17  7  1  9 37  5.0000000  0 10G23G02G28G03G05G06G17G12G09G19
  23769545.620    -5023834.711  
  23037330.662   -19650352.691  
  24059266.267    19644507.273  
  24851348.596    28722564.180  
  24145585.467    28321718.636  
  20764207.877   -63362562.228  
  21001063.070    -8966408.597  
  22846640.643    47348356.154  
  22489997.621   -19883356.960  
  20436243.195    -4917624.433  
 17  7  1  9 37 10.0000000  0 10G23G02G28G03G05G06G17G12G09G19
  23769746.515    -5022784.309  
  23035745.912   -19658690.467  
  24062629.493    19662182.683  
  24854653.154    28739930.037  
  24142243.549    28304160.243  
  20764203.578   -63362584.535  
  21002082.451    -8961050.227  
  22845131.446    47340423.890  
  22488627.510   -19890564.201  
  20436482.438    -4916365.320  
 17  7  1  9 37 15.0000000  0 10G23G02G28G03G05G06G17G12G09G19
  23769947.077    -5021720.898  
  23034158.255   -19667026.814  
  24065989.382    19679858.315  
  24857958.382    28757296.953  
  24138901.156    28286606.397  
  20764200.091   -63362602.415  
  21003104.075    -8955680.465  
  22843623.634    47332506.571  
  22487256.208   -19897759.520  
  20436724.784    -4915094.513  
 17  7  1  9 37 20.0000000  0 10G23G02G28G03G05G06G17G12G09G19
  23770153.407    -5020644.465  
  23032571.643   -19675361.645  
  24069351.747    19697534.510  
  24861263.081    28774664.994  
  24135561.667    28269057.170  
  20764196.648   -63362615.824  
  21004128.460    -8950299.199  
  22842119.157    47324604.258  
  22485890.100   -19904942.864  
  20436969.176    -4913811.920  
 17  7  1  9 37 25.0000000  0 10G23G02G28G03G05G06G17G12G09G19
  23770360.859    -5019554.924  
  23030986.297   -19683695.023  
  24072713.375    19715210.937  
  24864568.760    28792034.151  
  24132223.588    28251512.588  
  20764195.615   -63362624.740  
  21005153.826    -8944906.417  
  22840619.666    47316717.039  
  22484525.974   -19912114.201  
  20437214.404    -4912517.543  
 17  7  1  9 37 30.0000000  0 10G23G02G28G03G05G06G17G12G09G19
  23770569.127    -5018452.357  
  23029401.050   -19692026.953  
  24076070.952    19732887.711  
  24867876.398    28809404.445  
  24128886.467    28233972.565  
  20764195.541   -63362629.278  
  21006183.442    -8939502.211  
  22839119.702    47308844.826  
  22483162.663   -19919273.536  
  20437462.595    -4911211.469  
 17  7  1  9 37 35.0000000  0 10G23G02G28G03G05G06G17G12G09G19
  23770783.405    -5017336.694  
  23027814.659   -19700357.371  
  24079427.672    19750564.824  
  24871183.322    28826775.867  
  24125549.347    28216437.204  
  20764195.611   -63362629.324  
  21007213.487    -8934086.377  
  22837624.174    47300987.689  
  22481803.216   -19926420.855  
  20437714.363    -4909893.632  
 17  7  1  9 37 40.0000000  0 10G23G02G28G03G05G06G17G12G09G19
  23770998.350    -5016208.088  
  23026230.367   -19708686.444  
  24082780.910    19768242.210  
  24874486.335    28844148.320  
  24122214.468    28198906.415  
  20764195.632   -63362625.011  
  21008246.489    -8928659.210  
  22836133.178    47293145.506  
  22480446.154   -19933556.225  
  20437967.657    -4908564.155  
 17  7  1  9 37 45.0000000  0  9G23G02G03G05G06G17G12G09G19
  23771212.825    -5015066.471  
  23024646.319   -19717014.105  
  24877792.453    28861521.745  
  24118879.833    28181380.194  
  20764197.186   -63362616.358  
  21009280.451    -8923220.689  
  22834644.000    47285318.291  
  22479090.910   -19940679.615  
  20438223.199    -4907223.036  
 17  7  1  9 37 50.0000000  0  9G23G02G03G05G06G17G12G09G19
  23771432.644    -5013911.735  
  23023061.320   -19725340.225  
  24881098.192    28878896.338  
  24115543.675    28163858.743  
  20764198.790   -63362603.156  
  21010318.469    -8917770.574  
  22833157.877    47277506.186  
  22477738.148   -19947790.883  
  20438477.932    -4905870.015  
 17  7  1  9 37 55.0000000  0  9G23G02G03G05G06G17G12G09G19
  23771654.663    -5012744.034  
  23021477.805   -19733664.950  
  24884403.127    28896271.938  
  24112209.860    28146341.921  
  20764203.309   -63362585.557  
  21011358.116    -8912309.041  
  22831673.812    47269709.091  
  22476385.727   -19954890.147  
  20438739.302    -4904505.323  
 17  7  1  9 38  0.0000000  0  9G23G02G03G05G06G17G12G09G19
  23771881.390    -5011563.189  
  23019893.704   -19741988.119  
  24887711.911    28913648.632  
  24108878.034    28128829.849  
  20764207.528   -63362563.486  
  21012398.034    -8906836.003  
  22830193.309    47261927.086  
  22475038.586   -19961977.293  
  20439001.230    -4903128.805  
 17  7  1  9 38  5.0000000  0  9G23G02G03G05G06G17G12G09G19
  23772109.581    -5010369.276  
  23018309.779   -19750309.822  
  24891019.297    28931026.447  
  24105545.096    28111322.441  
  20764212.066   -63362536.904  
  21013442.708    -8901351.418  
  22828714.699    47254160.219  
  22473689.761   -19969052.319  
  20439265.623    -4901740.453  
 17  7  1  9 38 10.0000000  0  9G23G02G03G05G06G17G12G09G19
  23772336.921    -5009162.269  
  23016726.147   -19758630.103  
  24894327.263    28948405.288  
  24102215.743    28093819.815  
  20764217.900   -63362505.861  
  21014488.962    -8895855.300  
  22827239.817    47246408.424  
  22472347.525   -19976115.228  
  20439532.599    -4900340.297  
 17  7  1  9 38 15.0000000  0  9G23G02G03G05G06G17G12G09G19
  23772567.542    -5007942.168  
  23015143.507   -19766948.915  
  24897634.217    28965785.186  
  24098886.952    28076321.867  
  20764224.868   -63362470.390  
  21015537.211    -8890347.643  
  22825766.357    47238671.738  
  22471004.421   -19983166.049  
  20439799.708    -4898928.310  
 17  7  1  9 38 20.0000000  0  9G23G02G03G05G06G17G12G09G19
  23772805.915    -5006709.066  
  23013561.608   -19775266.231  
  24900941.340    28983166.052  
  24095557.615    28058828.630  
  20764232.577   -63362430.470  
  21016586.200    -8884828.481  
  22824297.500    47230950.098  
  22469667.353   -19990204.757  
  20440072.280    -4897504.558  
 17  7  1  9 38 25.0000000  0  9G23G02G03G05G06G17G12G09G19
  23773043.198    -5005462.849  
  23011978.046   -19783582.246  
  24904250.090    29000547.894  
  24092229.762    28041340.065  
  20764241.056   -63362386.201  
  21017639.106    -8879297.883  
  22822832.275    47223243.458  
  22468328.478   -19997231.380  
  20440344.907    -4896069.059  
 17  7  1  9 38 30.0000000  0  9G23G02G03G05G06G17G12G09G19
  23773281.068    -5004203.568  
  23010397.361   -19791896.713  
  24907557.282    29017930.796  
  24088903.213    28023856.291  
  20764250.552   -63362337.444  
  21018694.604    -8873755.754  
  22821367.638    47215551.998  
  22466993.768   -20004245.822  
  20440619.409    -4894621.736  
 17  7  1  9 38 35.0000000  0  9G23G02G03G05G06G17G12G09G19
  23773522.491    -5002931.402  
  23008813.075   -19800209.831  
  24910862.876    29035314.513  
  24085576.210    28006377.152  
  20764260.595   -63362284.369  
  21019750.792    -8868202.186  
  22819907.126    47207875.501  
  22465661.037   -20011248.251  
  20440897.320    -4893162.722  
 17  7  1  9 38 40.0000000  0 10G23G02G28G03G05G06G17G12G09G19
  23773766.340    -5001646.215  
  23007232.931   -19808521.580  
  24123194.095    12187059.625  
  24914170.896    29052699.162  
  24082251.776    27988902.679  
  20764271.347   -63362226.971  
  21020809.836    -8862637.242  
  22818448.610    47200214.067  
  22464331.018   -20018238.568  
  20441176.799    -4891692.009  
 17  7  1  9 38 45.0000000  0 10G23G02G28G03G05G06G17G12G09G19
  23774014.031    -5000347.850  
  23005650.476   -19816831.856  
  24126552.604    12204739.654  
  24917480.181    29070084.772  
  24078926.032    27971433.023  
  20764283.366   -63362165.093  
  21021871.291    -8857060.721  
  22816994.509    47192567.816  
  22463002.551   -20025216.741  
  20441459.834    -4890209.443  
 17  7  1  9 38 50.0000000  0 10G23G02G28G03G05G06G17G12G09G19
  23774264.994    -4999036.261  
  23004069.433   -19825140.523  
  24129909.521    12222419.960  
  24920788.590    29087471.491  
  24075603.704    27953968.261  
  20764295.366   -63362098.647  
  21022934.873    -8851472.468  
  22815543.394    47184936.810  
  22461678.359   -20032182.550  
  20441744.424    -4888714.865  
 17  7  1  9 38 55.0000000  0 10G23G02G28G03G05G06G17G12G09G19
  23774516.935    -4997711.773  
  23002489.512   -19833447.819  
  24133271.708    12240100.218  
  24924098.262    29104859.114  
  24072281.065    27936508.180  
  20764309.631   -63362027.876  
  21024001.150    -8845872.799  
  22814092.684    47177320.861  
  22460355.430   -20039136.279  
  20442031.279    -4887208.579  
 17  7  1  9 39  0.0000000  0 10G23G02G28G03G05G06G17G12G09G19
  23774771.140    -4996374.184  
  23000908.991   -19841753.697  
  24136639.592    12257780.538  
  24927406.763    29122247.645  
  24068959.116    27919052.904  
  20764324.156   -63361952.692  
  21025068.689    -8840261.596  
  22812647.242    47169720.018  
  22459034.908   -20046077.829  
  20442320.255    -4885690.504  
 17  7  1  9 39  5.0000000  0 10G23G02G28G03G05G06G17G12G09G19
  23775029.292    -4995023.723  
  22999327.697   -19850058.381  
  24140004.413    12275460.794  
  24930715.206    29139636.846  
  24065636.680    27901602.154  
  20764338.480   -63361873.321  
  21026137.600    -8834639.041  
  22811203.889    47162134.123  
  22457715.615   -20053007.394  
  20442611.748    -4884160.882  
 17  7  1  9 39 10.0000000  0 10G23G02G28G03G05G06G17G12G09G19
  23775288.172    -4993660.181  
  22997748.561   -19858361.668  
  24143360.661    12293141.035  
  24934023.804    29157026.915  
  24062319.835    27884156.157  
  20764354.533   -63361789.552  
  21027210.959    -8829005.071  
  22809763.981    47154563.391  
  22456399.052   -20059924.751  
  20442904.683    -4882619.422  
 17  7  1  9 39 15.0000000  0 10G23G02G28G03G05G06G17G12G09G19
  23775550.894    -4992283.467  
  22996168.259   -19866663.440  
  24146717.889    12310821.482  
  24937332.667    29174418.089  
  24058999.249    27866715.088  
  20764371.566   -63361701.246  
  21028284.869    -8823359.493  
  22808325.340    47147007.945  
  22455084.329   -20066829.780  
  20443200.173    -4881066.063  
 17  7  1  9 39 20.0000000  0 10G23G02G28G03G05G06G17G12G09G19
  23775815.420    -4990893.969  
  22994588.473   -19874964.087  
  24150077.350    12328501.686  
  24940644.907    29191809.668  
  24055679.752    27849278.489  
  20764388.972   -63361608.919  
  21029360.869    -8817702.724  
  22806889.791    47139467.297  
  22453773.413   -20073722.966  
  20443497.324    -4879501.213  
 17  7  1  9 39 25.0000000  0 10G23G02G28G03G05G06G17G12G09G19
  23776082.171    -4989491.183  
  22993011.056   -19883263.114  
  24153435.316    12346182.191  
  24943954.222    29209202.472  
  24052363.768    27831847.047  
  20764407.459   -63361511.922  
  21030440.097    -8812034.199  
  22805459.472    47131942.061  
  22452463.005   -20080603.582  
  20443797.702    -4877924.260  
 17  7  1  9 39 30.0000000  0 10G23G02G28G03G05G06G17G12G09G19
  23776351.163    -4988075.332  
  22991429.726   -19891560.673  
  24156796.381    12363862.764  
  24947259.768    29226596.153  
  24049045.731    27814420.453  
  20764427.185   -63361410.461  
  21031520.992    -8806354.063  
  22804030.249    47124432.079  
  22451155.124   -20087471.938  
  20444100.750    -4876335.413  
 17  7  1  9 39 35.0000000  0 10G23G02G28G03G05G06G17G12G09G19
  23776621.748    -4986646.279  
  22989850.419   -19899856.707  
  24160161.901    12381543.439  
  24950563.473    29243990.791  
  24045732.150    27796998.678  
  20764447.359   -63361304.561  
  21032604.483    -8800662.360  
  22802602.763    47116937.295  
  22449851.412   -20094327.990  
  20444405.248    -4874734.694  
 17  7  1  9 39 40.0000000  0 10G23G02G28G03G05G06G17G12G09G19
  23776896.082    -4985204.048  
  22988272.857   -19908151.332  
  24163527.163    12399224.128  
  24953868.207    29261386.320  
  24042417.881    27779581.912  
  20764467.704   -63361194.161  
  21033689.146    -8794959.054  
  22801179.740    47109457.795  
  22448550.160   -20101171.661  
  20444710.918    -4873122.018  
 17  7  1  9 39 45.0000000  0 10G23G02G28G03G05G06G17G12G09G19
  23777173.743    -4983748.592  
  22986694.902   -19916444.369  
  24166892.176    12416904.929  
  24957183.853    29278782.768  
  24039104.937    27762170.139  
  20764490.090   -63361079.250  
  21034776.851    -8789244.119  
  22799759.043    47101993.619  
  22447249.947   -20108002.953  
  20445020.632    -4871497.391  
 17  7  1  9 39 50.0000000  0 10G23G02G28G03G05G06G17G12G09G19
  23777453.343    -4982280.125  
  22985118.171   -19924736.094  
  24170261.274    12434585.687  
  24960494.998    29296180.051  
  24035790.354    27744763.087  
  20764512.124   -63360960.038  
  21035866.494    -8783517.765  
  22798342.288    47094544.565  
  22445952.674   -20114821.991  
  20445332.857    -4869861.013  
 17  7  1  9 39 55.0000000  0 10G23G02G28G03G05G06G17G12G09G19
  23777734.485    -4980798.557  
  22983540.978   -19933026.394  
  24173620.895    12452269.308  
  24963808.830    29313577.093  
  24032481.320    27727360.952  
  20764535.987   -63360836.368  
  21036958.108    -8777779.846  
  22796926.503    47087110.722  
  22444657.515   -20121628.723  
  20445646.195    -4868212.723  
 17  7  1  9 40  0.0000000  0 10G23G02G28G03G05G06G17G12G09G19
  23778020.485    -4979303.917  
  22981962.347   -19941315.286  
  24176979.223    12469949.963  
  24967123.515    29330976.044  
  24029168.988    27709963.637  
  20764560.702   -63360708.330  
  21038052.292    -8772030.388  
  22795514.575    47079692.119  
  22443364.926   -20128423.138  
  20445961.243    -4866552.577  
 17  7  1  9 40  5.0000000  0 10G23G02G28G03G05G06G17G12G09G19
  23778305.974    -4977796.268  
  22980386.067   -19949602.838  
  24180338.469    12487630.461  
  24970428.958    29348375.675  
  24025858.863    27692571.134  
  20764585.906   -63360575.972  
  21039148.540    -8766269.466  
  22794106.285    47072288.719  
  22442072.397   -20135205.310  
  20446279.786    -4864880.646  
 17  7  1  9 40 10.0000000  0 10G23G02G28G03G05G06G17G12G09G19
  23778593.805    -4976275.405  
  22978806.834   -19957888.905  
  24183710.217    12505311.017  
  24973735.885    29365776.285  
  24022551.652    27675183.624  
  20764611.306   -63360439.123  
  21040246.700    -8760496.906  
  22792701.051    47064900.639  
  22440785.214   -20141975.050  
  20446600.242    -4863196.766  
 17  7  1  9 40 15.0000000  0 10G23G02G28G03G05G06G17G12G09G19
  23778886.667    -4974741.366  
  22977233.635   -19966173.559  
  24187072.115    12522991.301  
  24977048.703    29383177.449  
  24019242.747    27657801.015  
  20764638.304   -63360297.887  
  21041348.318    -8754712.794  
  22791297.416    47057527.720  
  22439498.914   -20148732.438  
  20446922.438    -4861501.031  
 17  7  1  9 40 20.0000000  0 10G23G02G28G03G05G06G17G12G09G19
  23779180.922    -4973194.423  
  22975656.534   -19974456.855  
  24190430.110    12540671.648  
  24980364.487    29400579.545  
  24015939.528    27640423.284  
  20764666.551   -63360152.344  
  21042450.613    -8748917.222  
  22789896.747    47050170.002  
  22438215.438   -20155477.529  
  20447248.030    -4859793.511  
 17  7  1  9 40 25.0000000  0  8G23G02G05G06G17G12G09G19
  23779479.049    -4971634.145  
  22974080.872   -19982738.632  
  24012631.166    27623050.629  
  20764694.949   -63360002.264  
  21043555.348    -8743109.932  
  22788500.236    47042827.668  
  22436933.973   -20162210.081  
  20447575.061    -4858073.915  
 17  7  1  9 40 30.0000000  0  8G23G02G05G06G17G12G09G19
  23779779.444    -4970060.934  
  22972504.330   -19991019.178  
  24009327.505    27605682.757  
  20764724.328   -63359847.911  
  21044663.354    -8737291.200  
  22787104.992    47035500.446  
  22435656.064   -20168930.416  
  20447904.361    -4856342.563  
 17  7  1  9 40 35.0000000  0  9G23G02G03G05G06G17G12G09G19
  23780080.804    -4968474.589  
  22970930.184   -19999298.281  
  24990299.335    29452745.582  
  24006022.376    27588319.783  
  20764753.957   -63359689.179  
  21045770.751    -8731460.916  
  22785714.576    47028188.466  
  22434378.262   -20175638.379  
  20448237.487    -4854599.356  
 17  7  1  9 40 40.0000000  0 10G23G02G28G03G05G06G17G12G09G19
  23780385.436    -4966875.167  
  22969355.590   -20007576.074  
  24203930.656    31084418.229  
  24993606.608    29470150.531  
  24002719.517    27570961.728  
  20764785.426   -63359526.153  
  21046883.995    -8725619.161  
  22784324.284    47020891.703  
  22433104.160   -20182333.985  
  20448570.308    -4852844.335  
 17  7  1  9 40 45.0000000  0 10G23G02G28G03G05G06G17G12G09G19
  23780690.795    -4965262.499  
  22967778.718   -20015852.310  
  24207291.886    31102097.706  
  24996910.172    29487556.379  
  23999417.815    27553608.785  
  20764817.193   -63359358.598  
  21047996.536    -8719765.731  
  22782940.586    47013610.324  
  22431831.358   -20189017.046  
  20448906.146    -4851077.267  
 17  7  1  9 40 50.0000000  0 10G23G02G28G03G05G06G17G12G09G19
  23781001.596    -4963636.787  
  22966204.712   -20024127.222  
  24210654.838    31119777.030  
  25000212.024    29504962.931  
  23996116.690    27536260.780  
  20764850.110   -63359186.720  
  21049113.374    -8713900.790  
  22781558.324    47006344.170  
  22430563.140   -20195687.756  
  20449244.277    -4849298.371  
 17  7  1  9 40 55.0000000  0  9G23G02G28G05G06G17G12G09G19
  23781313.266    -4961997.844  
  22964629.286   -20032400.647  
  24214021.378    31137456.349  
  23992814.717    27518917.862  
  20764883.609   -63359010.329  
  21050231.081    -8708024.135  
  22780176.930    46999093.428  
  22429296.936   -20202345.872  
  20449584.995    -4847507.404  
 17  7  1  9 41  0.0000000  0  9G23G02G28G05G06G17G12G09G19
  23781626.479    -4960345.867  
  22963055.832   -20040672.765  
  24217381.304    31155135.249  
  23989516.433    27501579.851  
  20764917.650   -63358829.618  
  21051352.764    -8702136.056  
  22778801.230    46991857.911  
  22428030.700   -20208991.641  
  20449928.973    -4845704.618  
 17  7  1  9 41  5.0000000  0  9G23G02G28G05G06G17G12G09G19
  23781944.694    -4958680.867  
  22961482.802   -20048943.589  
  24220743.800    31172813.893  
  23986217.571    27484246.728  
  20764952.114   -63358644.645  
  21052474.440    -8696236.510  
  22777426.524    46984637.631  
  22426771.041   -20215625.076  
  20450273.804    -4843890.029  
 17  7  1  9 41 10.0000000  0  9G23G02G28G05G06G17G12G09G19
  23782263.214    -4957002.764  
  22959907.499   -20057212.984  
  24224109.033    31190492.245  
  23982919.871    27466918.626  
  20764989.172   -63358455.284  
  21053599.712    -8690325.439  
  22776055.557    46977432.655  
  22425509.253   -20222245.996  
  20450622.086    -4842063.508  
 17  7  1  9 41 15.0000000  0 10G23G02G28G03G05G06G17G12G09G19
  23782583.276    -4955311.670  
  22958334.312   -20065481.084  
  24227467.508    31208170.342  
  25016805.191    47216635.142  
  23979624.859    27449595.377  
  20765026.198   -63358261.659  
  21054727.384    -8684402.874  
  22774687.993    46970242.869  
  22424252.156   -20228854.588  
  20450971.911    -4840225.136  
 17  7  1  9 41 20.0000000  0 10G23G02G28G03G05G06G17G12G09G19
  23782908.662    -4953607.284  
  22956761.155   -20073747.658  
  24230830.594    31225848.379  
  25020115.762    47234045.853  
  23976327.587    27432277.397  
  20765062.825   -63358063.466  
  21055856.948    -8678468.527  
  22773322.319    46963068.625  
  22422996.806   -20235450.465  
  20451323.484    -4838374.647  
 17  7  1  9 41 25.0000000  0 10G23G02G28G03G05G06G17G12G09G19
  23783237.655    -4951889.768  
  22955189.171   -20082012.788  
  24234194.995    31243526.231  
  25023424.929    47251457.107  
  23973033.492    27414964.497  
  20765102.486   -63357860.875  
  21056987.827    -8672522.562  
  22771960.108    46955909.695  
  22421743.774   -20242033.882  
  20451678.233    -4836512.185  
 17  7  1  9 41 30.0000000  0 10G23G02G28G03G05G06G17G12G09G19
  23783566.574    -4950159.336  
  22953615.254   -20090276.727  
  24237560.897    31261203.662  
  25026740.463    47268868.919  
  23969740.182    27397656.394  
  20765140.928   -63357654.091  
  21058121.066    -8666565.248  
  22770600.829    46948765.901  
  22420495.105   -20248604.895  
  20452034.625    -4834637.999  
 17  7  1  9 41 35.0000000  0 10G23G02G28G03G05G06G17G12G09G19
  23783899.242    -4948415.653  
  22952043.369   -20098539.189  
  24240925.397    31278880.824  
  25030050.731    47286281.401  
  23966447.331    27380353.487  
  20765182.118   -63357442.790  
  21059256.623    -8660596.205  
  22769242.866    46941637.602  
  22419245.749   -20255163.281  
  20452393.050    -4832751.716  
 17  7  1  9 41 40.0000000  0 10G23G02G28G03G05G06G17G12G09G19
  23784230.774    -4946658.893  
  22950471.349   -20106800.346  
  24244290.763    31296557.642  
  25033362.152    47303694.491  
  23963155.775    27363055.591  
  20765222.458   -63357227.210  
  21060394.764    -8654615.705  
  22767890.206    46934524.518  
  22418000.121   -20261709.210  
  20452753.916    -4830853.614  
 17  7  1  9 41 45.0000000  0 10G23G02G28G03G05G06G17G12G09G19
  23784568.886    -4944889.045  
  22948901.331   -20115060.037  
  24247657.560    31314234.130  
  25036673.715    47321108.075  
  23959865.076    27345762.751  
  20765264.799   -63357007.263  
  21061536.338    -8648623.631  
  22766539.834    46927426.841  
  22416757.068   -20268242.604  
  20453118.930    -4828943.552  
 17  7  1  9 41 50.0000000  0 10G23G02G28G03G05G06G17G12G09G19
  23784907.853    -4943106.024  
  22947329.448   -20123318.467  
  24251027.356    31331910.250  
  25039984.558    47338522.257  
  23956575.232    27328474.943  
  20765307.709   -63356782.979  
  21062678.336    -8642620.010  
  22765192.748    46920344.434  
  22415516.014   -20274763.477  
  20453483.653    -4827021.600  
 17  7  1  9 41 55.0000000  0 10G23G02G28G03G05G06G17G12G09G19
  23785250.105    -4941309.922  
  22945757.416   -20131575.485  
  24254392.711    31349585.993  
  25043291.960    47355937.219  
  23953286.956    27311192.196  
  20765351.757   -63356554.335  
  21063822.046    -8636604.803  
  22763848.805    46913277.451  
  22414277.672   -20281271.799  
  20453852.949    -4825087.677  
 17  7  1  9 42  0.0000000  0 10G23G02G28G03G05G06G17G12G09G19
  23785593.565    -4939500.623  
  22944185.018   -20139831.135  
  24257754.838    31367261.422  
  25046602.860    47373352.868  
  23949997.312    27293914.550  
  20765395.583   -63356321.307  
  21064968.538    -8630578.023  
  22762504.925    46906225.855  
  22413040.825   -20287767.538  
  20454222.165    -4823141.818  
 17  7  1  9 42  5.0000000  0 10G23G02G28G03G05G06G17G12G09G19
  23785940.733    -4937678.148  
  22942614.754   -20148085.422  
  24261115.522    31384936.411  
  25049915.036    47390768.957  
  23946712.234    27276642.025  
  20765440.683   -63356083.866  
  21066118.165    -8624539.609  
  22761166.899    46899189.654  
  22411808.544   -20294250.679  
  20454593.945    -4821183.917  
 17  7  1  9 42 10.0000000  0 10G23G02G28G03G05G06G17G12G09G19
  23786289.600    -4935842.620  
  22941046.047   -20156338.381  
  24264478.478    31402611.086  
  25053224.046    47408185.654  
  23943426.567    27259374.573  
  20765487.484   -63355842.128  
  21067270.064    -8618489.680  
  22759831.146    46892168.810  
  22410576.962   -20300721.270  
  20454969.428    -4819214.116  
 17  7  1  9 42 15.0000000  0 10G23G02G28G03G05G06G17G12G09G19
  23786642.634    -4933993.986  
  22939475.925   -20164589.950  
  24267844.884    31420285.232  
  25056534.647    47425602.880  
  23940141.775    27242112.187  
  20765533.443   -63355596.040  
  21068423.268    -8612428.174  
  22758497.412    46885163.310  
  22409348.114   -20307179.317  
  20455346.644    -4817232.354  
 17  7  1  9 42 20.0000000  0 10G23G02G28G03G05G06G17G12G09G19
  23786996.076    -4932132.127  
  22937905.782   -20172840.100  
  24271207.550    31437959.116  
  25059846.801    47443020.701  
  23936857.105    27224855.035  
  20765581.097   -63355345.575  
  21069578.883    -8606355.039  
  22757168.379    46878173.230  
  22408122.394   -20313624.694  
  20455726.844    -4815238.626  
 17  7  1  9 42 25.0000000  0 10G23G02G28G03G05G06G17G12G09G19
  23787352.235    -4930257.189  
  22936333.491   -20181088.930  
  24274570.355    31455632.353  
  25063155.947    47460438.900  
  23933574.722    27207602.963  
  20765628.892   -63355090.781  
  21070736.786    -8600270.390  
  22755840.632    46871198.521  
  22406896.528   -20320057.457  
  20456106.756    -4813232.956  
 17  7  1  9 42 30.0000000  0 10G23G02G28G03G05G06G17G12G09G19
  23787714.389    -4928369.268  
  22934766.766   -20189336.559  
  24277933.720    31473305.143  
  25066480.819    47477857.569  
  23930292.468    27190355.822  
  20765678.391   -63354831.822  
  21071896.821    -8594174.285  
  22754515.732    46864239.006  
  22405674.655   -20326477.804  
  20456491.662    -4811215.488  
 17  7  1  9 42 35.0000000  0 10G23G02G28G03G05G06G17G12G09G19
  23788072.077    -4926468.074  
  22933197.293   -20197582.687  
  24281297.340    31490977.574  
  25069803.087    47495276.842  
  23927011.329    27173113.982  
  20765728.289   -63354568.352  
  21073059.115    -8588066.440  
  22753193.379    46857295.054  
  22404454.898   -20332885.321  
  20456878.255    -4809185.896  
 17  7  1  9 42 40.0000000  0 10G23G02G28G03G05G06G17G12G09G19
  23788438.190    -4924553.769  
  22931626.513   -20205827.509  
  24284660.227    31508649.549  
  25073129.627    47512696.629  
  23923731.602    27155877.267  
  20765779.885   -63354300.527  
  21074224.253    -8581947.035  
  22751876.157    46850366.506  
  22403237.555   -20339280.247  
  20457266.403    -4807144.343  
 17  7  1  9 42 45.0000000  0 10G23G02G28G03G05G06G17G12G09G19
  23788804.695    -4922626.375  
  22930059.417   -20214071.034  
  24288020.787    31526320.995  
  25076449.693    47530116.855  
  23920451.982    27138645.718  
  20765832.017   -63354028.412  
  21075390.499    -8575816.081  
  22750561.189    46843453.323  
  22402025.041   -20345662.554  
  20457656.948    -4805090.830  
 17  7  1  9 42 50.0000000  0 10G23G02G28G03G05G06G17G12G09G19
  23789173.833    -4920685.764  
  22928490.375   -20222313.099  
  24291377.828    31543992.129  
  25079772.105    47547537.650  
  23917175.567    27121419.439  
  20765884.779   -63353751.833  
  21076559.091    -8569673.405  
  22749247.996    46836555.703  
  22400812.727   -20352032.074  
  20458050.412    -4803025.201  
 17  7  1  9 42 55.0000000  0  9G23G02G28G05G06G17G12G09G19
  23789546.766    -4918732.159  
  22926922.695   -20230554.031  
  24294736.374    31561660.605  
  23913897.081    27104198.122  
  20765938.474   -63353471.104  
  21077730.764    -8563519.343  
  22747936.451    46829673.418  
  22399600.488   -20358389.109  
  20458446.669    -4800947.775  
 17  7  1  9 43  0.0000000  0  9G23G02G28G05G06G17G12G09G19
  23789918.566    -4916765.215  
  22925355.171   -20238793.485  
  24298101.085    31579330.623  
  23910621.182    27086982.100  
  20765993.183   -63353185.936  
  21078904.594    -8557353.606  
  22746630.785    46822806.571  
  22398394.414   -20364733.336  
  20458843.797    -4798858.232  
 17  7  1  9 43  5.0000000  0  9G23G02G28G05G06G17G12G09G19
  23790296.818    -4914785.271  
  22923785.226   -20247031.651  
  24301465.808    31597000.014  
  23907346.153    27069771.230  
  20766047.188   -63352896.441  
  21080079.295    -8551176.282  
  22745326.561    46815955.165  
  22397190.068   -20371064.917  
  20459242.653    -4796756.715  
 17  7  1  9 43 10.0000000  0  9G23G02G28G05G06G17G12G09G19
  23790675.718    -4912792.098  
  22922219.364   -20255268.427  
  24304819.446    31614669.135  
  23904072.346    27052565.640  
  20766102.557   -63352602.569  
  21081257.364    -8544987.328  
  22744027.709    46809119.241  
  22395988.804   -20377383.718  
  20459645.879    -4794643.161  
 17  7  1  9 43 15.0000000  0  8G23G02G05G06G17G12G09G19
  23791055.983    -4910785.820  
  22920650.716   -20263503.909  
  23900797.900    27035365.147  
  20766159.720   -63352304.386  
  21082436.654    -8538786.834  
  22742729.362    46802298.685  
  22394788.475   -20383689.872  
  20460050.183    -4792517.650  
 17  7  1  9 43 20.0000000  0  9G23G02G28G05G06G17G12G09G19
  23791441.937    -4908766.428  
  22919085.326   -20271738.054  
  24311574.491    31650003.287  
  23897527.283    27018169.870  
  20766218.137   -63352001.910  
  21083619.773    -8532574.749  
  22741434.415    46795493.606  
  22393590.831   -20389983.337  
  20460456.742    -4790380.176  
 17  7  1  9 43 25.0000000  0  8G23G02G05G06G17G12G09G19
  23791828.827    -4906733.874  
  22917520.586   -20279970.812  
  23894255.027    27000979.859  
  20766275.916   -63351695.038  
  21084803.829    -8526351.055  
  22740141.550    46788703.996  
  22392396.270   -20396263.985  
  20460865.955    -4788230.633  
 17  7  1  9 43 30.0000000  0  8G23G02G05G06G17G12G09G19
  23792218.374    -4904688.166  
  22915953.637   -20288202.283  
  23890984.569    26983795.041  
  20766334.348   -63351383.907  
  21085990.398    -8520115.781  
  22738851.484    46781929.806  
  22391202.934   -20402531.965  
  20461277.539    -4786069.123  
 17  7  1  9 43 35.0000000  0  8G23G02G05G06G17G12G09G19
  23792610.050    -4902629.307  
  22914387.242   -20296432.375  
  23887715.810    26966615.539  
  20766394.480   -63351068.378  
  21087178.809    -8513868.878  
  22737566.551    46775171.181  
  22390011.441   -20408787.175  
  20461690.248    -4783895.585  
 17  7  1  9 43 40.0000000  0  8G23G02G05G06G17G12G09G19
  23793004.437    -4900557.350  
  22912820.555   -20304661.187  
  23884448.045    26949441.225  
  20766455.463   -63350748.565  
  21088370.218    -8507610.444  
  22736283.043    46768427.922  
  22388824.805   -20415029.606  
  20462107.244    -4781710.017  
 17  7  1  9 43 45.0000000  0  8G23G02G05G06G17G12G09G19
  23793402.442    -4898472.159  
  22911253.192   -20312888.641  
  23881180.893    26932272.281  
  20766516.772   -63350424.338  
  21089562.955    -8501340.297  
  22735003.295    46761700.258  
  22387637.781   -20421259.209  
  20462524.137    -4779512.340  
 17  7  1  9 43 50.0000000  0  8G23G02G05G06G17G12G09G19
  23793800.421    -4896373.838  
  22909690.240   -20321114.774  
  23877914.432    26915108.533  
  20766580.060   -63350095.824  
  21090758.816    -8495058.577  
  22733726.383    46754988.066  
  22386455.739   -20427476.064  
  20462946.013    -4777302.682  
 17  7  1  9 43 55.0000000  0  8G23G02G05G06G17G12G09G19
  23794202.545    -4894262.417  
  22908123.991   -20329339.586  
  23874649.253    26897950.084  
  20766642.484   -63349762.993  
  21091956.101    -8488765.285  
  22732450.468    46748291.286  
  22385275.124   -20433680.112  
  20463367.884    -4775080.979  
 17  7  1  9 44  0.0000000  0  8G23G02G05G06G17G12G09G19
  23794606.151    -4892137.813  
  22906559.653   -20337563.018  
  23871384.840    26880796.942  
  20766707.390   -63349425.771  
  21093154.725    -8482460.337  
  22731180.041    46741610.114  
  22384096.561   -20439871.308  
  20463793.811    -4772847.216  
 17  7  1  9 44  5.0000000  0  8G23G02G05G06G17G12G09G19
  23795014.283    -4890000.162  
  22904995.693   -20345785.200  
  23868123.237    26863648.994  
  20766772.102   -63349084.336  
  21094358.306    -8476143.914  
  22729910.707    46734944.338  
  22382920.666   -20446049.835  
  20464219.687    -4770601.508  
 17  7  1  9 44 10.0000000  0  8G23G02G05G06G17G12G09G19
  23795421.422    -4887849.348  
  22903430.739   -20354006.071  
  23864858.637    26846506.328  
  20766838.968   -63348738.585  
  21095562.323    -8469815.849  
  22728646.675    46728294.028  
  22381746.067   -20452215.520  
  20464649.864    -4768343.790  
 17  7  1  9 44 15.0000000  0  8G23G02G05G06G17G12G09G19
  23795833.252    -4885685.387  
  22901867.615   -20362225.658  
  23861598.872    26829368.994  
  20766904.802   -63348388.501  
  21096768.028    -8463476.163  
  22727384.759    46721659.313  
  22380576.875   -20458368.389  
  20465082.013    -4766074.045  
 17  7  1  9 44 20.0000000  0  8G23G02G05G06G17G12G09G19
  23796248.087    -4883508.315  
  22900302.343   -20370443.950  
  23858338.390    26812236.889  
  20766972.210   -63348034.181  
  21097976.593    -8457124.919  
  22726124.274    46715039.966  
  22379407.825   -20464508.445  
  20465516.165    -4763792.304  
 17  7  1  9 44 25.0000000  0  8G23G02G05G06G17G12G09G19
  23796665.622    -4881317.946  
  22898739.057   -20378660.802  
  23855078.034    26795110.304  
  20767040.458   -63347675.432  
  21099187.860    -8450761.967  
  22724868.492    46708436.352  
  22378243.479   -20470635.543  
  20465953.591    -4761498.393  
